placekey,raw_visitor_counts,distance_from_home,median_dwell,cluster,location_name,top_category,sub_category,latitude,longitude,city,region,pred_sub_category
22b-222@8ts-d5x-vzz,5.459585514144159,7.979338895262328,2.6390573296152584,1,El Bronco Market,Grocery Stores,Supermarkets and Other Grocery (except Convenience) Stores,33.465443,-112.19558,Phoenix,AZ,Supermarkets and Other Grocery (except Convenience) Stores
225-222@5zb-xjy-4qf,3.091042453358316,10.091666918814242,2.0794415416798357,2,ampm,Grocery Stores,Convenience Stores,33.582523,-111.92537,Scottsdale,AZ,Convenience Stores
22b-222@5zb-xcx-t35,4.983606621708336,9.207937487359873,2.302585092994046,2,Circle K,Grocery Stores,Convenience Stores,33.45076,-112.10387,Phoenix,AZ,Supermarkets and Other Grocery (except Convenience) Stores
zzw-224@8th-mtv-5zz,6.016157159698354,10.712103982902187,2.70805020110221,2,Bashas' Supermarkets,Grocery Stores,Supermarkets and Other Grocery (except Convenience) Stores,34.242283,-111.32091,Payson,AZ,Supermarkets and Other Grocery (except Convenience) Stores
226-222@8ts-zgj-pvz,4.330733340286331,8.702344075220351,3.332204510175204,3,Sunshine Convenience Mart,Grocery Stores,Convenience Stores,33.421722,-111.88337,Tempe,AZ,Convenience Stores
zzw-222@8ts-z9z-ks5,5.978885764901122,8.481151420068972,2.0794415416798357,1,7-Eleven,Grocery Stores,Convenience Stores,33.336277,-111.75484,Gilbert,AZ,Convenience Stores
zzw-224@5zb-t2h-nnq,6.714170529909472,8.519789817263504,2.833213344056216,1,Fry's Food & Drug Stores,Grocery Stores,Supermarkets and Other Grocery (except Convenience) Stores,34.554207,-112.48229,Prescott,AZ,Supermarkets and Other Grocery (except Convenience) Stores
222-222@5zb-wth-8gk,5.493061443340548,9.608579434992608,2.0794415416798357,2,Circle K,Grocery Stores,Convenience Stores,33.669514,-112.08341,Phoenix,AZ,Convenience Stores
222-222@8ts-zdj-zzz,7.4413203897176174,8.144969417087875,2.302585092994046,1,Fry's Food & Drug Stores,Grocery Stores,Supermarkets and Other Grocery (except Convenience) Stores,33.290958,-111.71976,Gilbert,AZ,Supermarkets and Other Grocery (except Convenience) Stores
224-222@8ts-3ps-brk,4.5217885770490405,8.808219665118408,1.791759469228055,2,Circle K,Grocery Stores,Convenience Stores,32.192692,-110.87457,Tucson,AZ,Convenience Stores
222-222@8ts-d78-9vf,5.241747015059643,8.00469951054955,2.302585092994046,1,Food City Arizona,Grocery Stores,Supermarkets and Other Grocery (except Convenience) Stores,33.431068,-112.34572,Avondale,AZ,Supermarkets and Other Grocery (except Convenience) Stores
225-222@8ts-3pr-cdv,5.153291594497779,8.703506769479729,2.833213344056216,1,Moan's Oriental Market,Grocery Stores,Supermarkets and Other Grocery (except Convenience) Stores,32.198067,-110.87568,Tucson,AZ,Supermarkets and Other Grocery (except Convenience) Stores
222-222@8ts-zcv-gx5,4.8283137373023015,8.9082888855571,2.0794415416798357,2,Circle K,Grocery Stores,Convenience Stores,33.292686,-111.78875,Gilbert,AZ,Convenience Stores
zzw-223@5zb-wwg-6kz,6.395261598115449,8.157370441186774,1.9459101490553132,1,Circle K,Grocery Stores,Convenience Stores,33.599236,-111.98978,Phoenix,AZ,Convenience Stores
zzw-222@8ts-ydb-dy9,4.787491742782046,9.23863624113103,2.0794415416798357,2,Pinal Food Market,Grocery Stores,Supermarkets and Other Grocery (except Convenience) Stores,33.031776,-111.38774,Florence,AZ,Convenience Stores
222-225@8ts-zc5-cdv,3.5553480614894135,9.266058860732526,1.9459101490553132,2,Fast Market,Grocery Stores,Convenience Stores,33.320843000000004,-111.72211,Gilbert,AZ,Convenience Stores
zzy-222@8th-73z-xqz,3.2188758248682006,9.3729692954244,1.6094379124341003,2,Mustang Conoco Gasoline & Convenience Store,Grocery Stores,Convenience Stores,34.152103,-109.97369,Pinetop-Lakeside,AZ,Convenience Stores
224-222@5zb-xdt-jy9,3.828641396489095,9.915169057309965,3.4339872044851463,3,Desert Drinks And Exotics,Grocery Stores,Convenience Stores,33.465549,-112.04388,Phoenix,AZ,Convenience Stores
226-224@8ts-zrs-sdv,6.651571873589727,8.09376775793108,3.044522437723423,1,Fry's Food & Drug Stores,Grocery Stores,Supermarkets and Other Grocery (except Convenience) Stores,33.450291,-111.70288,Mesa,AZ,Supermarkets and Other Grocery (except Convenience) Stores
222-222@5zb-xfy-s89,4.672828834461906,9.127719343287845,1.791759469228055,2,4 Sons Food Stores,Grocery Stores,Supermarkets and Other Grocery (except Convenience) Stores,33.638283,-112.32436,Surprise,AZ,Supermarkets and Other Grocery (except Convenience) Stores
zzw-22d@5zb-xnt-249,5.771441123130016,8.552174160311482,2.6390573296152584,1,Safeway,Grocery Stores,Supermarkets and Other Grocery (except Convenience) Stores,33.510628,-111.91059,Scottsdale,AZ,Supermarkets and Other Grocery (except Convenience) Stores
222-222@8ts-zbg-zj9,4.30406509320417,8.845921233304018,2.4849066497880004,2,M & R Market,Grocery Stores,Supermarkets and Other Grocery (except Convenience) Stores,33.392498,-111.82246,Mesa,AZ,Supermarkets and Other Grocery (except Convenience) Stores
zzw-224@8tt-7xq-yjv,2.6390573296152584,9.493261127326253,3.295836866004329,3,Brownie Brokerage,Grocery Stores,Supermarkets and Other Grocery (except Convenience) Stores,31.452061,-110.97401,Rio Rico,AZ,Supermarkets and Other Grocery (except Convenience) Stores
224-222@8ts-6wg-s5z,3.970291913552122,9.067393362656249,1.9459101490553132,2,Circle K,Grocery Stores,Convenience Stores,31.899586,-110.99449,Green Valley,AZ,Convenience Stores
223-222@5zb-xj8-nqz,3.295836866004329,8.936298185228436,3.7727609380946383,3,Denmark Foods,Grocery Stores,Supermarkets and Other Grocery (except Convenience) Stores,33.5639,-112.22512,Peoria,AZ,Supermarkets and Other Grocery (except Convenience) Stores
zzy-222@8ts-3md-t9z,3.4011973816621555,9.500020447090638,3.1570004211501135,3,Flora's Market Run,Grocery Stores,Supermarkets and Other Grocery (except Convenience) Stores,32.228153,-110.93402,Tucson,AZ,Supermarkets and Other Grocery (except Convenience) Stores
22f-222@8ts-zhy-ks5,4.127134385045092,8.938925271988273,2.0794415416798357,2,Jz Market,Grocery Stores,Convenience Stores,33.378155,-111.89083,Mesa,AZ,Convenience Stores
22c-222@8ts-zbm-bff,5.1647859739235145,7.5251007461258,1.791759469228055,1,Circle K,Grocery Stores,Convenience Stores,33.393047,-111.81383,Mesa,AZ,Convenience Stores
222-222@8ts-ckg-5cq,6.194405391104672,9.292012520620208,2.9444389791664403,2,Food City Arizona,Grocery Stores,Supermarkets and Other Grocery (except Convenience) Stores,32.880688,-111.73642,Casa Grande,AZ,Supermarkets and Other Grocery (except Convenience) Stores
222-224@8sc-r8p-nbk,4.955827057601261,8.082402253926244,2.5649493574615367,1,Del Sol,Grocery Stores,Convenience Stores,32.721802,-114.62491,Yuma,AZ,Supermarkets and Other Grocery (except Convenience) Stores
222-223@8ts-zfn-n3q,6.803505257608338,8.21959545417708,2.9444389791664403,1,Fry's Food & Drug Stores,Grocery Stores,Supermarkets and Other Grocery (except Convenience) Stores,33.394028,-111.94123,Tempe,AZ,Supermarkets and Other Grocery (except Convenience) Stores
222-223@8ts-zyg-54v,3.2188758248682006,7.583756300707112,2.995732273553991,1,Fry's Food & Drug Stores,Grocery Stores,Supermarkets and Other Grocery (except Convenience) Stores,33.32185,-111.87482,Chandler,AZ,Supermarkets and Other Grocery (except Convenience) Stores
zzy-222@8ts-zfh-r8v,2.6390573296152584,8.152774052744075,2.3978952727983707,1,Limited Too,Grocery Stores,Supermarkets and Other Grocery (except Convenience) Stores,33.429836,-111.90649,Tempe,AZ,Supermarkets and Other Grocery (except Convenience) Stores
226-222@8ts-zfw-yjv,4.634728988229636,7.524021415206125,2.302585092994046,1,Mr J's Market,Grocery Stores,Convenience Stores,33.46611,-112.01255,Phoenix,AZ,Convenience Stores
225-224@8ts-3mb-9j9,6.075346031088684,8.927314111060596,2.0794415416798357,2,Corner Store,Grocery Stores,Convenience Stores,32.206467,-110.95574,Tucson,AZ,Convenience Stores
zzy-227@5z9-dbq-psq,2.1972245773362196,10.278733974060291,2.0794415416798357,2,The Mineshaft Market,Grocery Stores,Convenience Stores,35.414211,-114.19869,Chloride,AZ,Convenience Stores
zzw-222@5zb-xbp-p7q,3.6375861597263857,9.112948025967533,2.70805020110221,3,New Tokyo Food Market,Grocery Stores,Supermarkets and Other Grocery (except Convenience) Stores,33.552761,-112.13323,Phoenix,AZ,Supermarkets and Other Grocery (except Convenience) Stores
222-222@8ts-zk2-cnq,6.39024066706535,8.418256443556213,1.791759469228055,1,Circle K,Grocery Stores,Convenience Stores,33.393883,-111.59755,Mesa,AZ,Convenience Stores
223-222@5zb-x66-99f,5.8289456176102075,9.169101623959586,2.70805020110221,2,Safeway,Grocery Stores,Supermarkets and Other Grocery (except Convenience) Stores,33.675747,-111.88817,Scottsdale,AZ,Supermarkets and Other Grocery (except Convenience) Stores
zzw-229@8ts-zgv-wtv,5.293304824724492,8.54752839121231,2.9444389791664403,1,Fry's Food & Drug Stores,Grocery Stores,Supermarkets and Other Grocery (except Convenience) Stores,33.495762,-111.91606,Scottsdale,AZ,Supermarkets and Other Grocery (except Convenience) Stores
236-222@8ts-zgv-qxq,4.976733742420574,8.849083518532339,1.791759469228055,2,Circle K,Grocery Stores,Convenience Stores,33.488037,-111.90947,Scottsdale,AZ,Convenience Stores
222-222@8ts-d5m-psq,4.74493212836325,9.64510534912921,2.0794415416798357,2,4 Sons Food Stores,Grocery Stores,Supermarkets and Other Grocery (except Convenience) Stores,33.460274,-112.34023,Avondale,AZ,Supermarkets and Other Grocery (except Convenience) Stores
22f-222@5zb-xbs-pgk,1.791759469228055,9.130214327496898,4.343805421853684,3,Benchris African Caribbean Market,Grocery Stores,Supermarkets and Other Grocery (except Convenience) Stores,33.517735,-112.15213,Glendale,AZ,Supermarkets and Other Grocery (except Convenience) Stores
228-222@5zb-wwg-3wk,6.959398512133975,7.8504931808711405,2.9444389791664403,1,Fry's Food & Drug Stores,Grocery Stores,Supermarkets and Other Grocery (except Convenience) Stores,33.597927,-112.15014,Phoenix,AZ,Supermarkets and Other Grocery (except Convenience) Stores
zzy-224@8tt-tsh-e35,3.044522437723423,9.262932822095353,2.5257286443082556,3,Red Mountain Foods,Grocery Stores,Supermarkets and Other Grocery (except Convenience) Stores,31.539314,-110.75434,Patagonia,AZ,Supermarkets and Other Grocery (except Convenience) Stores
zzw-222@5zb-w6k-jjv,1.791759469228055,10.149370590819828,3.2771447329921766,3,Circle K,Grocery Stores,Convenience Stores,33.965893,-112.73508,Wickenburg,AZ,Convenience Stores
zzw-222@8ts-3pb-rhq,3.6888794541139363,9.516058806914062,3.2386784521643803,3,Johnny's Complete Foods,Grocery Stores,Supermarkets and Other Grocery (except Convenience) Stores,32.238976,-110.99222,Tucson,AZ,Supermarkets and Other Grocery (except Convenience) Stores
222-222@5zb-xcn-6ff,6.021023349349527,7.932362154339751,2.6390573296152584,1,Safeway,Grocery Stores,Supermarkets and Other Grocery (except Convenience) Stores,33.539417,-112.06232,Phoenix,AZ,Supermarkets and Other Grocery (except Convenience) Stores
222-222@8ts-d2w-kj9,5.749392985908253,9.29771001811309,1.9459101490553132,2,Circle K,Grocery Stores,Convenience Stores,33.40728,-112.04752,Phoenix,AZ,Convenience Stores
zzw-222@8ts-zdf-g6k,4.804021044733257,8.180320874773685,1.9459101490553132,1,ampm,Grocery Stores,Convenience Stores,33.305389,-111.86092,Chandler,AZ,Convenience Stores
22n-222@8ts-3md-t5f,4.6443908991413725,9.258082367961604,3.784189633918261,3,Rincon Market,Grocery Stores,Supermarkets and Other Grocery (except Convenience) Stores,32.228127,-110.93497,Tucson,AZ,Supermarkets and Other Grocery (except Convenience) Stores
224-222@5zb-xcv-wp9,5.84354441703136,9.386727689281946,2.0794415416798357,2,Circle K,Grocery Stores,Convenience Stores,33.43734,-112.11776,Phoenix,AZ,Convenience Stores
zzw-222@8sc-xdt-kzz,5.75890177387728,7.242797922793756,2.6390573296152584,1,IGA,Grocery Stores,Supermarkets and Other Grocery (except Convenience) Stores,32.596348,-114.71044,Somerton,AZ,Supermarkets and Other Grocery (except Convenience) Stores
226-222@5zb-xcz-7qz,4.997212273764115,8.588024372176829,2.302585092994046,1,Carniceria El Camino,Grocery Stores,Supermarkets and Other Grocery (except Convenience) Stores,33.465649,-112.12761,Phoenix,AZ,Supermarkets and Other Grocery (except Convenience) Stores
224-222@5zb-xcn-6rk,3.5263605246161616,9.083529205109796,2.1972245773362196,2,Imperial Kosher Market,Grocery Stores,Supermarkets and Other Grocery (except Convenience) Stores,33.537891,-112.06355,Phoenix,AZ,Supermarkets and Other Grocery (except Convenience) Stores
22h-222@8ts-366-3bk,5.857933154483459,9.200593020521303,2.8903717578961645,2,Whole Foods Market,Grocery Stores,Supermarkets and Other Grocery (except Convenience) Stores,32.336578,-110.97819,Tucson,AZ,Supermarkets and Other Grocery (except Convenience) Stores
222-222@8sc-xqt-9vf,2.1972245773362196,8.832587702434553,3.960813169597578,3,3 Star Lettuce,Grocery Stores,Supermarkets and Other Grocery (except Convenience) Stores,32.682072,-114.56647,Yuma,AZ,Supermarkets and Other Grocery (except Convenience) Stores
225-222@5zb-xb8-zvf,5.272999558563747,8.349957272040324,2.302585092994046,1,A & S Market,Grocery Stores,Supermarkets and Other Grocery (except Convenience) Stores,33.508636,-112.09091,Phoenix,AZ,Convenience Stores
226-224@8tt-w4y-z9f,3.1780538303479458,9.293669979563187,1.9459101490553132,2,Express Stop,Grocery Stores,Convenience Stores,31.411329,-109.8785,Bisbee,AZ,Convenience Stores
zzw-223@5zb-wwt-t9z,6.317164686747284,8.571681376700306,3.1780538303479458,1,Sprouts Farmers Market,Grocery Stores,Supermarkets and Other Grocery (except Convenience) Stores,33.637215,-112.18103,Glendale,AZ,Supermarkets and Other Grocery (except Convenience) Stores
222-222@5zb-xh6-cdv,1.9459101490553132,8.62191350218664,3.4011973816621555,3,McClendon's Select,Grocery Stores,Supermarkets and Other Grocery (except Convenience) Stores,33.629356,-112.2272,Peoria,AZ,Supermarkets and Other Grocery (except Convenience) Stores
229-222@8ts-3h7-5j9,3.1780538303479458,8.326274787396764,4.204692619390966,3,Arizona Tomato Distributors,Grocery Stores,Supermarkets and Other Grocery (except Convenience) Stores,32.217709,-110.81343,Tucson,AZ,Supermarkets and Other Grocery (except Convenience) Stores
zzw-224@8tg-8yy-d35,3.9889840465642745,7.886457270977689,2.302585092994046,1,Circle K,Grocery Stores,Convenience Stores,35.026505,-110.7024,Winslow,AZ,Convenience Stores
222-223@8ts-zb7-h89,3.58351893845611,8.304989580140361,1.791759469228055,1,Diamond Shamrock Store 1645,Grocery Stores,Supermarkets and Other Grocery (except Convenience) Stores,33.307369,-111.75471,Gilbert,AZ,Supermarkets and Other Grocery (except Convenience) Stores
227-222@8tg-hvn-99f,3.8918202981106265,8.545002892055505,1.9459101490553132,2,Circle K,Grocery Stores,Convenience Stores,35.212154,-111.60595000000001,Flagstaff,AZ,Convenience Stores
222-227@5zb-vnj-skf,4.23410650459726,7.890956716138919,2.302585092994046,1,Bashas' Supermarkets,Grocery Stores,Supermarkets and Other Grocery (except Convenience) Stores,33.509502,-112.33929,Litchfield Park,AZ,Supermarkets and Other Grocery (except Convenience) Stores
zzw-227@5zb-wxb-c89,5.817111159963204,8.134760782418645,2.8903717578961645,1,Safeway,Grocery Stores,Supermarkets and Other Grocery (except Convenience) Stores,33.608723,-112.06699,Phoenix,AZ,Supermarkets and Other Grocery (except Convenience) Stores
zzy-222@5zb-xds-bc5,4.897839799950911,9.732105935780508,2.3978952727983707,2,Southwest Mushrooms,Grocery Stores,Supermarkets and Other Grocery (except Convenience) Stores,33.45573,-112.07307,Phoenix,AZ,Supermarkets and Other Grocery (except Convenience) Stores
222-222@8ts-3nx-7h5,3.332204510175204,8.246171559857563,1.9459101490553132,1,ampm,Grocery Stores,Convenience Stores,32.180145,-110.95553,Tucson,AZ,Convenience Stores
225-222@5zb-xkh-ysq,6.037870919922137,9.218804450388312,1.9459101490553132,2,Circle K,Grocery Stores,Convenience Stores,33.639858,-111.95935,Scottsdale,AZ,Convenience Stores
222-222@5zb-wtt-6hq,4.276666119016055,8.56388591940822,2.4849066497880004,1,Craft Beer Quick Stop,Grocery Stores,Supermarkets and Other Grocery (except Convenience) Stores,33.656528,-112.06506,Phoenix,AZ,Supermarkets and Other Grocery (except Convenience) Stores
222-224@5zb-xgj-kzz,6.068425588244111,7.9561263512135,2.8903717578961645,1,Albertsons,Grocery Stores,Supermarkets and Other Grocery (except Convenience) Stores,33.597664,-112.16719,Glendale,AZ,Supermarkets and Other Grocery (except Convenience) Stores
223-222@5zb-xkm-mtv,5.616771097666572,8.65067458279072,2.8903717578961645,1,Smart & Final,Grocery Stores,Supermarkets and Other Grocery (except Convenience) Stores,33.612473,-111.97622,Phoenix,AZ,Supermarkets and Other Grocery (except Convenience) Stores
zzw-228@5zb-xcp-bff,1.9459101490553132,9.403766708502243,2.2512917986064953,3,De La Ana European Delicatessen Store,Grocery Stores,Convenience Stores,33.551949,-112.1004,Phoenix,AZ,Supermarkets and Other Grocery (except Convenience) Stores
22b-222@8sc-r8p-r49,3.4657359027997265,8.418918622147897,4.394449154672439,3,Hom's Market,Grocery Stores,Supermarkets and Other Grocery (except Convenience) Stores,32.719334,-114.62245,Yuma,AZ,Supermarkets and Other Grocery (except Convenience) Stores
223-224@5zb-xm4-dgk,6.661854740545311,8.868835492826895,3.044522437723423,1,Fry's Food & Drug Stores,Grocery Stores,Supermarkets and Other Grocery (except Convenience) Stores,33.580837,-111.88965,Scottsdale,AZ,Supermarkets and Other Grocery (except Convenience) Stores
222-222@5zb-xc7-hyv,5.3612921657094255,8.859931469616097,2.6390573296152584,1,Smart & Final,Grocery Stores,Supermarkets and Other Grocery (except Convenience) Stores,33.495674,-112.02232,Phoenix,AZ,Supermarkets and Other Grocery (except Convenience) Stores
226-222@8ts-zdb-ty9,4.477336814478207,8.327726166461412,2.2512917986064953,1,Carniceria El Herradero,Grocery Stores,Convenience Stores,33.298634,-111.84303,Chandler,AZ,Convenience Stores
22j-222@8ts-zg2-bp9,4.59511985013459,9.113499020526627,2.1972245773362196,2,Circle K,Grocery Stores,Convenience Stores,33.479744,-111.97771,Phoenix,AZ,Convenience Stores
222-222@8ts-zhz-tjv,4.997212273764115,8.220941168281389,3.044522437723423,1,Fry's Food & Drug Stores,Grocery Stores,Supermarkets and Other Grocery (except Convenience) Stores,33.379356,-111.91095,Tempe,AZ,Supermarkets and Other Grocery (except Convenience) Stores
222-222@8ts-zff-cyv,3.871201010907891,8.259716961021523,2.70805020110221,1,Trader Joe's,Grocery Stores,Supermarkets and Other Grocery (except Convenience) Stores,33.422394,-111.92484,Tempe,AZ,Supermarkets and Other Grocery (except Convenience) Stores
222-222@8ts-zr9-kzz,5.313205979041787,8.029758520440822,1.9459101490553132,1,Circle K,Grocery Stores,Convenience Stores,33.415977,-111.75424,Mesa,AZ,Convenience Stores
222-222@5zb-xg4-kmk,5.529429087511423,8.314832179284556,2.833213344056216,1,Safeway,Grocery Stores,Supermarkets and Other Grocery (except Convenience) Stores,33.638603,-112.29228,Sun City,AZ,Supermarkets and Other Grocery (except Convenience) Stores
zzy-222@8ts-zn8-8vz,4.174387269895637,9.39465993143281,2.1972245773362196,2,Circle K,Grocery Stores,Convenience Stores,33.37878,-111.68884,Gilbert,AZ,Convenience Stores
223-222@8ts-zj7-k75,4.890349128221754,8.881558488638976,2.302585092994046,2,7-Eleven,Grocery Stores,Convenience Stores,33.334576,-111.87701,Chandler,AZ,Supermarkets and Other Grocery (except Convenience) Stores
222-222@8sc-xqj-vcq,4.04305126783455,8.574895901544526,2.995732273553991,3,Green Trees Grocery Outlet,Grocery Stores,Supermarkets and Other Grocery (except Convenience) Stores,32.709,-114.61637,Yuma,AZ,Supermarkets and Other Grocery (except Convenience) Stores
zzw-225@8ts-zxk-yy9,6.150602768446279,9.200087995511831,2.772588722239781,2,AJ's Fine Foods,Grocery Stores,Supermarkets and Other Grocery (except Convenience) Stores,33.317944,-111.96443,Chandler,AZ,Supermarkets and Other Grocery (except Convenience) Stores
222-222@8ts-d4y-fvf,7.252762418053187,7.81762544305337,2.9444389791664403,1,Fry's Food & Drug Stores,Grocery Stores,Supermarkets and Other Grocery (except Convenience) Stores,33.433979,-112.3043,Avondale,AZ,Supermarkets and Other Grocery (except Convenience) Stores
zzw-222@5zb-wtj-yqf,4.02535169073515,7.660585461703256,1.9459101490553132,1,ampm,Grocery Stores,Convenience Stores,33.683117,-112.11676,Phoenix,AZ,Convenience Stores
222-222@8sc-r8m-3h5,5.568344503761097,7.820840879907344,2.302585092994046,1,Food City Arizona,Grocery Stores,Supermarkets and Other Grocery (except Convenience) Stores,32.713898,-114.6352,Yuma,AZ,Supermarkets and Other Grocery (except Convenience) Stores
zzw-222@5zb-xd2-5mk,4.499809670330265,8.246433786160365,2.3513752571634776,1,Carniceria Guasave,Grocery Stores,Supermarkets and Other Grocery (except Convenience) Stores,33.466293,-112.13796,Phoenix,AZ,Supermarkets and Other Grocery (except Convenience) Stores
223-222@5zb-xb5-xdv,4.990432586778736,8.124743020385568,1.9459101490553132,1,Hacienda Carniceria La,Grocery Stores,Supermarkets and Other Grocery (except Convenience) Stores,33.502392,-112.11668,Phoenix,AZ,Supermarkets and Other Grocery (except Convenience) Stores
22m-222@8ts-3j2-bx5,5.407171771460119,8.102889134640868,1.791759469228055,1,Circle K,Grocery Stores,Convenience Stores,32.220398,-110.78929,Tucson,AZ,Convenience Stores
222-226@8tt-22j-mkz,5.7430031878094825,8.751949058058614,1.791759469228055,2,Corner Store,Grocery Stores,Convenience Stores,33.249222,-111.62728,Queen Creek,AZ,Convenience Stores
zzy-222@8tr-zb7-249,6.20050917404269,9.56976154158294,1.9459101490553132,2,Circle K,Grocery Stores,Convenience Stores,32.338295,-111.06244,Marana,AZ,Convenience Stores
222-225@5zb-x8k-ysq,6.0014148779611505,8.601718146485926,2.4849066497880004,1,Albertsons,Grocery Stores,Supermarkets and Other Grocery (except Convenience) Stores,33.79987,-112.12698,Phoenix,AZ,Supermarkets and Other Grocery (except Convenience) Stores
zzw-223@8ts-zd4-vvf,5.0369526024136295,8.721113147762688,2.70805020110221,1,El Rancho Market,Grocery Stores,Supermarkets and Other Grocery (except Convenience) Stores,33.322311,-111.84274,Chandler,AZ,Supermarkets and Other Grocery (except Convenience) Stores
222-222@5zb-xk9-pd9,4.1588830833596715,9.261983605128021,3.1354942159291497,3,Circle K,Grocery Stores,Convenience Stores,33.575081,-111.90439,Scottsdale,AZ,Convenience Stores
223-222@5zb-xd2-qs5,5.099866427824199,9.372629275019902,2.4849066497880004,2,Circle K,Grocery Stores,Convenience Stores,33.421898,-112.13515,Phoenix,AZ,Supermarkets and Other Grocery (except Convenience) Stores
223-222@8ts-zxx-3yv,5.921578419643816,8.255048902752295,2.995732273553991,1,Sprouts Farmers Market,Grocery Stores,Supermarkets and Other Grocery (except Convenience) Stores,33.264763,-111.85629,Chandler,AZ,Supermarkets and Other Grocery (except Convenience) Stores
223-223@8ts-2dt-z2k,4.330733340286331,8.90557995798965,2.302585092994046,2,IGA,Grocery Stores,Supermarkets and Other Grocery (except Convenience) Stores,32.749481,-111.54881,Eloy,AZ,Supermarkets and Other Grocery (except Convenience) Stores
222-222@8ts-6y3-7wk,4.48863636973214,9.448805939388178,2.3978952727983707,2,La VaKita,Grocery Stores,Supermarkets and Other Grocery (except Convenience) Stores,31.86993,-110.99142,Green Valley,AZ,Supermarkets and Other Grocery (except Convenience) Stores
223-222@8ts-3px-6tv,5.429345628954441,9.041329829241901,1.9459101490553132,2,Circle K,Grocery Stores,Convenience Stores,32.178547,-110.9172,Tucson,AZ,Convenience Stores
zzy-224@8ts-d4y-ghq,4.543294782270004,8.031710375322042,2.2512917986064953,1,Circle K,Grocery Stores,Convenience Stores,33.434975,-112.29762,Avondale,AZ,Convenience Stores
zzw-222@5zb-xd5-w6k,4.204692619390966,9.09459276343187,2.833213344056216,3,Eddies Food Market,Grocery Stores,Convenience Stores,33.437023,-112.11261,Phoenix,AZ,Convenience Stores
222-222@8sc-r8m-dvz,5.877735781779639,7.857093864902493,2.70805020110221,1,Food City Arizona,Grocery Stores,Supermarkets and Other Grocery (except Convenience) Stores,32.699867,-114.65186,Yuma,AZ,Supermarkets and Other Grocery (except Convenience) Stores
222-222@8tr-zb4-qzz,4.941642422609304,8.175829008714597,1.9459101490553132,1,Circle K,Grocery Stores,Convenience Stores,32.33773,-111.02917,Tucson,AZ,Convenience Stores
223-222@5zb-xkd-skf,5.697093486505405,8.00836557031292,2.995732273553991,1,Safeway,Grocery Stores,Supermarkets and Other Grocery (except Convenience) Stores,33.62434,-111.97901,Phoenix,AZ,Supermarkets and Other Grocery (except Convenience) Stores
222-225@8ts-zfj-3dv,2.833213344056216,9.77945377161268,2.740840023925201,3,Jacksons Food Stores,Grocery Stores,Convenience Stores,33.429626,-111.89942,Tempe,AZ,Supermarkets and Other Grocery (except Convenience) Stores
222-223@8ts-d5x-2kz,5.10594547390058,9.336356092559043,1.9459101490553132,2,Circle K,Grocery Stores,Convenience Stores,33.436291,-112.16894,Phoenix,AZ,Convenience Stores
222-223@5zb-xgn-6ff,3.58351893845611,7.0967213784947605,1.9459101490553132,1,Diamond Shamrock,Grocery Stores,Supermarkets and Other Grocery (except Convenience) Stores,33.566597,-112.2034,Glendale,AZ,Supermarkets and Other Grocery (except Convenience) Stores
222-222@8ts-ckh-7t9,5.6937321388027,9.313528529772352,1.9459101490553132,2,Circle K,Grocery Stores,Convenience Stores,32.878883,-111.72665,Casa Grande,AZ,Convenience Stores
226-223@5zb-xds-7wk,4.564348191467836,10.220594923172552,3.367295829986474,3,Shrubwell,Grocery Stores,Supermarkets and Other Grocery (except Convenience) Stores,33.458454,-112.07099,Phoenix,AZ,Supermarkets and Other Grocery (except Convenience) Stores
223-222@8ts-zfp-649,5.384495062789089,9.756957759840232,2.0794415416798357,2,Circle K,Grocery Stores,Convenience Stores,33.407776,-111.96136,Tempe,AZ,Convenience Stores
zzy-225@5z9-rht-n89,6.210600077024653,8.782936356349264,2.995732273553991,1,Safeway,Grocery Stores,Supermarkets and Other Grocery (except Convenience) Stores,34.587387,-112.32976,Prescott Valley,AZ,Supermarkets and Other Grocery (except Convenience) Stores
222-222@8ts-3my-kzz,4.553876891600541,8.429235912657095,1.791759469228055,1,7-Eleven,Grocery Stores,Convenience Stores,32.243839,-110.87584,Tucson,AZ,Convenience Stores
224-222@8tr-zb8-sh5,5.1647859739235145,7.987184748233473,2.5649493574615367,1,Bashas' Supermarkets,Grocery Stores,Supermarkets and Other Grocery (except Convenience) Stores,32.358028,-111.0445,Tucson,AZ,Supermarkets and Other Grocery (except Convenience) Stores
zzw-223@8ts-znb-3t9,4.343805421853684,8.117610746466228,2.9444389791664403,1,Albertsons,Grocery Stores,Supermarkets and Other Grocery (except Convenience) Stores,33.377594,-111.63351,Mesa,AZ,Supermarkets and Other Grocery (except Convenience) Stores
227-222@8ts-d2y-kmk,3.1780538303479458,9.245514446983837,2.1400661634962708,2,ampm,Grocery Stores,Convenience Stores,33.407352,-112.08259,Phoenix,AZ,Convenience Stores
zzw-222@5zb-xns-jy9,4.143134726391533,9.817493839369153,2.0794415416798357,2,7-Eleven,Grocery Stores,Convenience Stores,33.524353,-111.89964,Scottsdale,AZ,Convenience Stores
zzw-222@8ts-zcg-4gk,6.666956792429207,7.997326822998097,2.9444389791664403,1,Fry's Food & Drug Stores,Grocery Stores,Supermarkets and Other Grocery (except Convenience) Stores,33.417099,-111.73455,Mesa,AZ,Supermarkets and Other Grocery (except Convenience) Stores
225-222@8ts-3my-4jv,2.9444389791664403,9.455245415071905,2.3513752571634776,3,Circle K,Grocery Stores,Convenience Stores,32.251251,-110.87497,Tucson,AZ,Supermarkets and Other Grocery (except Convenience) Stores
222-222@5zb-xcz-zxq,4.418840607796598,8.050065422915965,2.0794415416798357,1,Roosevelt Supermarket,Grocery Stores,Supermarkets and Other Grocery (except Convenience) Stores,33.458969,-112.12743,Phoenix,AZ,Convenience Stores
222-223@8ts-zgh-kj9,5.187385805840755,7.379008127628304,2.302585092994046,1,7-Eleven,Grocery Stores,Convenience Stores,33.399971,-111.87397,Mesa,AZ,Convenience Stores
222-222@8sc-xr3-975,4.624972813284271,8.58839695042257,2.8903717578961645,1,Green Trees Grocery Outlet,Grocery Stores,Supermarkets and Other Grocery (except Convenience) Stores,32.669739,-114.47767,Yuma,AZ,Supermarkets and Other Grocery (except Convenience) Stores
222-222@5zb-xmh-xt9,6.98933526597456,9.205629292246064,2.70805020110221,2,Trader Joe's,Grocery Stores,Supermarkets and Other Grocery (except Convenience) Stores,33.63596,-111.91715,Scottsdale,AZ,Supermarkets and Other Grocery (except Convenience) Stores
227-222@8sc-r8q-ffz,5.003946305945459,8.438149984075784,1.9459101490553132,1,Circle K,Grocery Stores,Convenience Stores,32.714592,-114.62412,Yuma,AZ,Convenience Stores
zzw-223@5z9-bt5-v2k,5.598421958998375,8.897545598709327,1.9459101490553132,2,Mohave Market Place,Grocery Stores,Convenience Stores,34.997547,-114.59742,Fort Mohave,AZ,Convenience Stores
223-222@8ts-3m4-bhq,6.19644412779452,6.771935555839602,3.295836866004329,1,La Petite Patisserie,Grocery Stores,Supermarkets and Other Grocery (except Convenience) Stores,32.229416,-110.95699,Tucson,AZ,Supermarkets and Other Grocery (except Convenience) Stores
223-226@8ts-3mp-w8v,4.3694478524670215,7.874358824729881,2.9444389791664403,1,Albertsons,Grocery Stores,Supermarkets and Other Grocery (except Convenience) Stores,32.29892,-110.99641,Tucson,AZ,Supermarkets and Other Grocery (except Convenience) Stores
zzy-223@5zb-wwn-6hq,4.3694478524670215,8.992681750892542,3.091042453358316,3,4 Sons Food Stores,Grocery Stores,Supermarkets and Other Grocery (except Convenience) Stores,33.666939,-112.1684,Glendale,AZ,Supermarkets and Other Grocery (except Convenience) Stores
22d-222@8ts-3my-4qf,4.2626798770413155,8.449556542700426,3.8066624897703196,3,Queen Sheba,Grocery Stores,Supermarkets and Other Grocery (except Convenience) Stores,32.251095,-110.87367,Tucson,AZ,Supermarkets and Other Grocery (except Convenience) Stores
223-222@8ts-3pw-tjv,4.90527477843843,8.957510510291613,1.791759469228055,2,Circle K,Grocery Stores,Convenience Stores,32.17767,-110.92586,Tucson,AZ,Convenience Stores
224-222@5zb-t2h-grk,4.30406509320417,8.646289764750648,2.1972245773362196,2,C Stop,Grocery Stores,Convenience Stores,34.546455,-112.47568,Prescott,AZ,Convenience Stores
222-222@8ts-zr6-gtv,3.58351893845611,8.835355971121606,2.302585092994046,2,Yerberia El TIGRE BLANCO,Grocery Stores,Supermarkets and Other Grocery (except Convenience) Stores,33.415684,-111.79594,Mesa,AZ,Supermarkets and Other Grocery (except Convenience) Stores
zzw-223@8ts-zg6-ckf,2.5649493574615367,9.835904401212332,2.302585092994046,3,The Corporate Deli,Grocery Stores,Convenience Stores,33.444756,-111.95614,Tempe,AZ,Supermarkets and Other Grocery (except Convenience) Stores
224-222@8ts-zb2-ch5,4.852030263919617,8.51097389160232,1.791759469228055,1,Circle K,Grocery Stores,Convenience Stores,33.321632,-111.75635,Gilbert,AZ,Convenience Stores
223-222@5zb-xg8-jn5,4.110873864173311,8.682877107057168,3.044522437723423,3,Qwik Stop,Grocery Stores,Convenience Stores,33.633354,-112.34151,Surprise,AZ,Convenience Stores
229-224@8ts-3jh-7h5,7.307872780763706,8.89370997756851,3.044522437723423,1,Fry's Food & Drug Stores,Grocery Stores,Supermarkets and Other Grocery (except Convenience) Stores,32.105358,-110.77406,Tucson,AZ,Supermarkets and Other Grocery (except Convenience) Stores
228-222@8sc-r8k-tqf,4.74493212836325,7.591357046698551,1.9459101490553132,1,Circle K,Grocery Stores,Convenience Stores,32.712868,-114.65076,Yuma,AZ,Convenience Stores
zzw-224@8ts-d2j-bx5,6.569481420414296,8.340694647925071,2.995732273553991,1,Fry's Food & Drug Stores,Grocery Stores,Supermarkets and Other Grocery (except Convenience) Stores,33.379318,-112.03191,Phoenix,AZ,Supermarkets and Other Grocery (except Convenience) Stores
zzw-224@5z9-t63-8jv,4.477336814478207,8.157657015196472,3.332204510175204,1,Fry's Food & Drug Stores,Grocery Stores,Supermarkets and Other Grocery (except Convenience) Stores,34.71838,-112.00323,Cottonwood,AZ,Supermarkets and Other Grocery (except Convenience) Stores
223-222@8tr-zbb-xbk,5.10594547390058,8.842893331055539,2.70805020110221,1,Sprouts Farmers Market,Grocery Stores,Supermarkets and Other Grocery (except Convenience) Stores,32.3223,-111.04339,Tucson,AZ,Supermarkets and Other Grocery (except Convenience) Stores
zzw-225@5zb-xbt-vvf,4.060443010546419,8.625509334899697,2.995732273553991,3,GS Supermarket,Grocery Stores,Supermarkets and Other Grocery (except Convenience) Stores,33.537155,-112.16996,Glendale,AZ,Supermarkets and Other Grocery (except Convenience) Stores
226-222@8ts-2dv-66k,4.605170185988092,8.711278615130434,2.0794415416798357,2,Circle K,Grocery Stores,Convenience Stores,32.758202,-111.55453,Eloy,AZ,Convenience Stores
222-223@8ts-zcf-jd9,3.784189633918261,8.89795568688403,2.302585092994046,2,Diamond Shamrock,Grocery Stores,Supermarkets and Other Grocery (except Convenience) Stores,33.408794,-111.73696,Mesa,AZ,Supermarkets and Other Grocery (except Convenience) Stores
zzy-223@8tr-zbs-cwk,8.651898894268529,9.547669384317377,2.9444389791664403,2,Arizona Pavilions,Grocery Stores,Supermarkets and Other Grocery (except Convenience) Stores,32.355694,-111.08912,Tucson,AZ,Supermarkets and Other Grocery (except Convenience) Stores
222-223@5zb-xh3-j35,4.2626798770413155,8.649098262296176,1.9459101490553132,2,Circle K,Grocery Stores,Convenience Stores,33.609451,-112.23814,Peoria,AZ,Convenience Stores
223-222@5zb-xmz-zxq,4.6913478822291435,9.959631563154169,1.791759469228055,2,Circle K,Grocery Stores,Convenience Stores,33.501659,-111.91792,Scottsdale,AZ,Convenience Stores
229-222@5zb-xfr-rc5,3.8501476017100584,8.277411998949004,2.2512917986064953,1,Grams Mini Mart,Grocery Stores,Convenience Stores,33.566017,-112.2804,Sun City,AZ,Convenience Stores
222-225@8ts-3mj-5mk,4.859812404361672,8.975124239427704,1.791759469228055,2,Corner Store,Grocery Stores,Convenience Stores,32.297935,-110.99567,Tucson,AZ,Convenience Stores
223-222@8ts-d6f-gkz,3.5263605246161616,8.687273461787838,3.5263605246161616,3,Food Valley Market,Grocery Stores,Supermarkets and Other Grocery (except Convenience) Stores,33.447559,-112.25538,Tolleson,AZ,Supermarkets and Other Grocery (except Convenience) Stores
222-222@8ts-zt5-d5f,3.970291913552122,9.031572493381526,1.9459101490553132,2,ampm,Grocery Stores,Convenience Stores,33.232422,-111.84218,Chandler,AZ,Convenience Stores
225-222@5zb-xg6-jy9,3.970291913552122,7.047517221357296,2.4849066497880004,1,Star Mini Mart,Grocery Stores,Convenience Stores,33.608738,-112.31499,El Mirage,AZ,Convenience Stores
223-222@5zb-wwg-kfz,4.290459441148391,8.508555998020574,2.995732273553991,1,Pop The Soda Shop,Grocery Stores,Supermarkets and Other Grocery (except Convenience) Stores,33.595909,-112.13466,Phoenix,AZ,Supermarkets and Other Grocery (except Convenience) Stores
222-224@5zb-wth-qvf,4.59511985013459,7.783224016336037,1.9459101490553132,1,Circle K,Grocery Stores,Convenience Stores,33.65551,-112.09932,Phoenix,AZ,Convenience Stores
227-223@8ts-78y-jvz,6.0063531596017325,7.99260665240021,2.5649493574615367,1,Food City Arizona,Grocery Stores,Supermarkets and Other Grocery (except Convenience) Stores,32.135036,-110.97643,Tucson,AZ,Supermarkets and Other Grocery (except Convenience) Stores
222-222@5zb-xjf-7bk,4.709530201312334,8.016317898503415,2.302585092994046,1,Uruapan Carniceria,Grocery Stores,Supermarkets and Other Grocery (except Convenience) Stores,33.52298,-112.20237,Glendale,AZ,Supermarkets and Other Grocery (except Convenience) Stores
223-222@8ts-zfg-zcq,4.770684624465665,9.575608290332934,2.302585092994046,2,Circle K,Grocery Stores,Convenience Stores,33.422371,-111.96038,Tempe,AZ,Convenience Stores
225-222@8ts-3h7-sbk,5.093750200806762,7.980023592310645,1.791759469228055,1,Circle K,Grocery Stores,Convenience Stores,32.206043,-110.80895,Tucson,AZ,Convenience Stores
226-222@8ts-zgk-73q,3.5553480614894135,9.487365864239434,2.772588722239781,3,Foodie Cat snack,Grocery Stores,Convenience Stores,33.409065,-111.8722,Mesa,AZ,Convenience Stores
222-222@8ts-d5t-kzz,5.749392985908253,8.963672275615016,1.9459101490553132,2,Circle K,Grocery Stores,Convenience Stores,33.451096,-112.23883,Tolleson,AZ,Convenience Stores
222-222@8ts-zg9-7kf,5.560681631015528,8.338783971442199,2.0794415416798357,1,Circle K,Grocery Stores,Convenience Stores,33.430073,-111.85558,Mesa,AZ,Convenience Stores
zzw-225@8ts-zfz-pn5,6.07073772800249,8.147867129923947,2.995732273553991,1,Safeway,Grocery Stores,Supermarkets and Other Grocery (except Convenience) Stores,33.496021,-111.97946,Phoenix,AZ,Supermarkets and Other Grocery (except Convenience) Stores
226-222@5zb-t2g-kfz,3.4657359027997265,9.625491749673769,2.1972245773362196,2,Prescott Quick Stop,Grocery Stores,Supermarkets and Other Grocery (except Convenience) Stores,34.534348,-112.46988,Prescott,AZ,Supermarkets and Other Grocery (except Convenience) Stores
222-225@8tt-pg8-sbk,2.0794415416798357,9.732699231555847,2.1972245773362196,3,S A H A R A Sahara Humanitarian Resource,Grocery Stores,Supermarkets and Other Grocery (except Convenience) Stores,31.630558,-110.33595,Huachuca City,AZ,Supermarkets and Other Grocery (except Convenience) Stores
zzw-226@8ts-3m5-h3q,6.6039438246004725,7.988203597022576,2.9444389791664403,1,Fry's Food & Drug Stores,Grocery Stores,Supermarkets and Other Grocery (except Convenience) Stores,32.251698,-110.96249,Tucson,AZ,Supermarkets and Other Grocery (except Convenience) Stores
224-222@8ts-3nn-snq,5.697093486505405,8.583542571957771,3.295836866004329,1,Sprouts Farmers Market,Grocery Stores,Supermarkets and Other Grocery (except Convenience) Stores,32.285278,-110.95941,Tucson,AZ,Supermarkets and Other Grocery (except Convenience) Stores
228-222@8ts-zhc-d35,5.308267697401205,9.221082468508085,1.791759469228055,2,Circle K,Grocery Stores,Convenience Stores,33.334476,-111.97723,Phoenix,AZ,Convenience Stores
224-222@8ts-d2s-snq,4.890349128221754,8.619388703730907,1.791759469228055,2,Circle K,Grocery Stores,Convenience Stores,33.406364,-112.08145,Phoenix,AZ,Convenience Stores
zzw-222@5zb-xbm-qfz,3.9512437185814275,8.251142139090751,1.791759469228055,1,7-Eleven,Grocery Stores,Convenience Stores,33.566616,-112.18667,Glendale,AZ,Convenience Stores
zzw-226@8ts-zhy-xwk,4.634728988229636,9.13755460225053,2.3978952727983707,2,Tia Juanita Awesome Sauce,Grocery Stores,Supermarkets and Other Grocery (except Convenience) Stores,33.37748,-111.87724,Mesa,AZ,Supermarkets and Other Grocery (except Convenience) Stores
222-223@8ts-zgk-sdv,3.6109179126442243,9.520761931397454,3.1354942159291497,3,ampm,Grocery Stores,Convenience Stores,33.422943,-111.84064,Mesa,AZ,Supermarkets and Other Grocery (except Convenience) Stores
222-222@8ts-32r-5pv,3.713572066704308,8.846353043314327,2.6390573296152584,3,Fortunato's Italian Deli,Grocery Stores,Convenience Stores,32.257233,-110.79755,Tucson,AZ,Convenience Stores
zzw-222@5zb-xbk-bhq,4.553876891600541,9.256078263650036,3.4339872044851463,3,Olive Branch Market,Grocery Stores,Supermarkets and Other Grocery (except Convenience) Stores,33.551964,-112.1365,Phoenix,AZ,Supermarkets and Other Grocery (except Convenience) Stores
222-223@5zb-ww8-yqf,3.2188758248682006,8.140315540159985,2.4849066497880004,1,Sprouts Farmers Market,Grocery Stores,Supermarkets and Other Grocery (except Convenience) Stores,33.609241,-112.14867,Phoenix,AZ,Supermarkets and Other Grocery (except Convenience) Stores
222-222@8ts-d2s-mff,4.553876891600541,8.34711636103872,1.9459101490553132,1,Circle K,Grocery Stores,Convenience Stores,33.399208,-112.07378,Phoenix,AZ,Convenience Stores
zzw-222@5zb-x3y-s3q,3.6635616461296463,9.336444248771908,1.791759469228055,2,Cave Creek Market,Grocery Stores,Convenience Stores,33.770737,-111.98248,Cave Creek,AZ,Convenience Stores
222-222@8ts-cmh-jn5,2.833213344056216,9.600759521879075,1.791759469228055,2,Bob's Market,Grocery Stores,Supermarkets and Other Grocery (except Convenience) Stores,32.795013,-111.75771,Casa Grande,AZ,Supermarkets and Other Grocery (except Convenience) Stores
222-222@8ts-3ns-g49,4.709530201312334,8.435766192720509,1.791759469228055,1,Giant Express Conoco,Grocery Stores,Convenience Stores,32.177517,-110.98136,Tucson,AZ,Convenience Stores
222-223@8ts-zjb-j35,6.29156913955832,7.7702232041587855,2.740840023925201,1,Fry's Food & Drug Stores,Grocery Stores,Supermarkets and Other Grocery (except Convenience) Stores,33.348225,-111.85817,Chandler,AZ,Supermarkets and Other Grocery (except Convenience) Stores
zzw-222@5zb-v7h-jn5,5.003946305945459,7.939871576361883,1.791759469228055,1,4 Sons Food Stores,Grocery Stores,Supermarkets and Other Grocery (except Convenience) Stores,33.609039,-112.39293,Surprise,AZ,Convenience Stores
22b-222@8ts-zb8-9s5,6.161207321695077,8.46821300919452,2.8903717578961645,1,Sprouts Farmers Market,Grocery Stores,Supermarkets and Other Grocery (except Convenience) Stores,33.303425,-111.75758,Gilbert,AZ,Supermarkets and Other Grocery (except Convenience) Stores
224-222@5zb-xmk-y7q,4.68213122712422,8.684570300824369,2.5257286443082556,1,AJ's Fine Foods,Grocery Stores,Supermarkets and Other Grocery (except Convenience) Stores,33.622131,-111.87311,Scottsdale,AZ,Supermarkets and Other Grocery (except Convenience) Stores
22b-222@8tr-zbv-7qz,5.181783550292085,7.60489448081162,1.791759469228055,1,Circle K,Grocery Stores,Convenience Stores,32.370274,-111.06692,Tucson,AZ,Convenience Stores
222-222@5zb-xgm-m6k,5.817111159963204,7.969357742016346,1.791759469228055,1,Circle K,Grocery Stores,Convenience Stores,33.581291,-112.2034,Peoria,AZ,Convenience Stores
223-223@8ts-zgs-psq,5.10594547390058,9.878682433617158,1.6094379124341003,2,Indian Creek Texaco,Grocery Stores,Supermarkets and Other Grocery (except Convenience) Stores,33.494431,-111.89119,Scottsdale,AZ,Supermarkets and Other Grocery (except Convenience) Stores
222-223@8ts-v37-y9z,5.537334267018537,10.156461713809012,1.9459101490553132,2,Circle K,Grocery Stores,Convenience Stores,33.358547,-111.46726,Gold Canyon,AZ,Convenience Stores
222-222@5zb-wxd-qcq,5.303304908059076,9.506362568702965,1.791759469228055,2,Circle K,Grocery Stores,Convenience Stores,33.596596,-112.01382,Phoenix,AZ,Convenience Stores
222-223@5zb-xbz-w8v,5.840641657373398,8.27052509505507,3.044522437723423,1,Fry's Food & Drug Stores,Grocery Stores,Supermarkets and Other Grocery (except Convenience) Stores,33.506653,-112.0412,Phoenix,AZ,Supermarkets and Other Grocery (except Convenience) Stores
zzw-222@8ts-zd4-vvf,5.872117789475416,8.54772239645106,2.70805020110221,1,IGA,Grocery Stores,Supermarkets and Other Grocery (except Convenience) Stores,33.322369,-111.84275,Chandler,AZ,Supermarkets and Other Grocery (except Convenience) Stores
227-222@5zb-vg5-3yv,4.543294782270004,7.9102237070973445,2.772588722239781,1,Mikeys Mini Mart,Grocery Stores,Convenience Stores,33.379723,-112.58616,Buckeye,AZ,Supermarkets and Other Grocery (except Convenience) Stores
22c-223@8ts-zfd-y35,2.302585092994046,9.913883328718248,2.3978952727983707,3,Acai Me,Grocery Stores,Supermarkets and Other Grocery (except Convenience) Stores,33.419281,-111.94023,Tempe,AZ,Supermarkets and Other Grocery (except Convenience) Stores
zzw-222@8ts-zfp-hqz,3.713572066704308,9.647949933410914,3.8394523125933104,3,Nephew's Corner Store,Grocery Stores,Convenience Stores,33.407661,-111.9483,Tempe,AZ,Convenience Stores
zzw-225@8ts-zgj-h5z,2.1972245773362196,9.842197084093021,2.5649493574615367,3,H Mart,Grocery Stores,Supermarkets and Other Grocery (except Convenience) Stores,33.413532,-111.8725,Mesa,AZ,Supermarkets and Other Grocery (except Convenience) Stores
222-224@5zb-xbg-2p9,6.502790045915623,8.386856689688234,2.8903717578961645,1,Safeway,Grocery Stores,Supermarkets and Other Grocery (except Convenience) Stores,33.488468,-112.08166,Phoenix,AZ,Supermarkets and Other Grocery (except Convenience) Stores
223-224@8tt-q4n-bff,5.736572297479192,9.433243894485784,2.833213344056216,2,Safeway,Grocery Stores,Supermarkets and Other Grocery (except Convenience) Stores,31.969147,-110.3066,Benson,AZ,Supermarkets and Other Grocery (except Convenience) Stores
zzw-227@8ts-3h9-dgk,4.859812404361672,8.43511508038063,1.791759469228055,1,7-Eleven,Grocery Stores,Convenience Stores,32.220512,-110.84149,Tucson,AZ,Convenience Stores
224-222@8ts-d23-2x5,4.897839799950911,8.363109176033522,2.302585092994046,1,Carniceria Agave,Grocery Stores,Supermarkets and Other Grocery (except Convenience) Stores,33.388817,-112.13531,Phoenix,AZ,Supermarkets and Other Grocery (except Convenience) Stores
222-222@8ts-zd7-h5z,4.727387818712341,8.051022208190679,2.1972245773362196,1,Circle K,Grocery Stores,Convenience Stores,33.328232,-111.85818,Chandler,AZ,Convenience Stores
224-222@8ts-79t-w6k,4.07753744390572,7.5443321080536885,2.1972245773362196,1,Quik Mart,Grocery Stores,Convenience Stores,32.141354,-110.90162,Tucson,AZ,Convenience Stores
222-223@5zb-xm9-d35,6.1441856341256456,9.234447447319416,3.044522437723423,2,Whole Foods Market,Grocery Stores,Supermarkets and Other Grocery (except Convenience) Stores,33.653683,-111.92733,Phoenix,AZ,Supermarkets and Other Grocery (except Convenience) Stores
zzw-222@8tr-z9c-wrk,6.54534966033442,9.388988523403828,1.9459101490553132,2,Circle K,Grocery Stores,Convenience Stores,32.336899,-111.0871,Tucson,AZ,Convenience Stores
zzw-222@8ts-d68-975,5.605802066295998,9.103868127465667,1.9459101490553132,2,7-Eleven,Grocery Stores,Convenience Stores,33.494373,-112.27344,Phoenix,AZ,Convenience Stores
223-222@8ts-zyd-mc5,5.231108616854587,8.536014945656826,1.9459101490553132,1,Circle K,Grocery Stores,Convenience Stores,33.320454,-111.92762,Chandler,AZ,Convenience Stores
222-222@5zb-xgp-z4v,2.833213344056216,9.137769679141348,3.9318256327243257,3,ampm,Grocery Stores,Convenience Stores,33.580837,-112.22076,Peoria,AZ,Convenience Stores
222-222@8ts-zr6-9s5,4.394449154672439,8.048468743668883,1.791759469228055,1,ampm,Grocery Stores,Convenience Stores,33.408432,-111.78793,Mesa,AZ,Convenience Stores
222-223@8ts-zn8-mp9,6.9957661563048505,8.130059039992796,2.70805020110221,1,Fry's Food & Drug Stores,Grocery Stores,Supermarkets and Other Grocery (except Convenience) Stores,33.380352,-111.68531,Mesa,AZ,Supermarkets and Other Grocery (except Convenience) Stores
222-222@5zb-xcj-s5z,6.395261598115449,8.038834757787749,2.995732273553991,1,Fry's Food & Drug Stores,Grocery Stores,Supermarkets and Other Grocery (except Convenience) Stores,33.572788,-112.06106,Phoenix,AZ,Supermarkets and Other Grocery (except Convenience) Stores
zzw-223@8tg-hvm-st9,3.9512437185814275,8.31752199628717,1.791759469228055,1,Hallum Stores,Grocery Stores,Convenience Stores,35.210392,-111.61374,Flagstaff,AZ,Convenience Stores
222-223@5zb-wx4-835,7.4377951216719325,8.733432966413652,3.1780538303479458,1,WinCo Foods,Grocery Stores,Supermarkets and Other Grocery (except Convenience) Stores,33.641537,-112.07935,Phoenix,AZ,Supermarkets and Other Grocery (except Convenience) Stores
22m-222@8ts-zgq-6p9,3.5263605246161616,9.226705726062447,2.0794415416798357,2,Cactus Food Mart,Grocery Stores,Supermarkets and Other Grocery (except Convenience) Stores,33.480713,-111.90719,Scottsdale,AZ,Supermarkets and Other Grocery (except Convenience) Stores
222-223@5zb-xhs-fmk,5.278114659230517,7.291656209174461,1.9459101490553132,1,Andrews Gas and Food Mart II,Grocery Stores,Supermarkets and Other Grocery (except Convenience) Stores,33.593739,-112.32562,El Mirage,AZ,Supermarkets and Other Grocery (except Convenience) Stores
222-222@8ts-3ps-z4v,4.890349128221754,8.95944014361693,1.9459101490553132,2,Circle K,Grocery Stores,Convenience Stores,32.21582,-110.90923,Tucson,AZ,Convenience Stores
223-223@5zb-xgv-47q,4.356708826689592,9.18039649560311,1.791759469228055,2,4 Sons Food Stores,Grocery Stores,Supermarkets and Other Grocery (except Convenience) Stores,33.638596,-112.25219,Peoria,AZ,Convenience Stores
222-224@8ts-z9z-tvz,7.116394144093465,7.887208585813932,2.995732273553991,1,Fry's Food & Drug Stores,Grocery Stores,Supermarkets and Other Grocery (except Convenience) Stores,33.337261,-111.7572,Gilbert,AZ,Supermarkets and Other Grocery (except Convenience) Stores
222-222@8ts-d77-d9z,5.293304824724492,9.250522161609014,1.9459101490553132,2,Circle K,Grocery Stores,Convenience Stores,33.43721,-112.35876,Goodyear,AZ,Convenience Stores
222-222@8tr-zs7-jvz,5.472270673671475,8.226038429485484,1.9459101490553132,1,Samrose Market,Grocery Stores,Convenience Stores,32.147408,-111.10638,Valencia West,AZ,Convenience Stores
zzy-222@8ts-d5s-k2k,5.0106352940962555,8.873187904050106,2.5649493574615367,2,Churros Don Lencho,Grocery Stores,Supermarkets and Other Grocery (except Convenience) Stores,33.422966,-112.20703,Phoenix,AZ,Supermarkets and Other Grocery (except Convenience) Stores
222-222@8ts-zgk-975,4.7535901911063645,8.397508348470257,2.302585092994046,1,Circle K,Grocery Stores,Convenience Stores,33.406975,-111.87401,Mesa,AZ,Supermarkets and Other Grocery (except Convenience) Stores
222-222@8ts-d6j-bkz,6.182084906716632,8.668368019213355,1.9459101490553132,1,Circle K,Grocery Stores,Convenience Stores,33.479767,-112.22125,Phoenix,AZ,Convenience Stores
zzw-224@8ts-3j7-hnq,4.812184355372417,8.531884740159228,1.6094379124341003,2,Fast Market,Grocery Stores,Convenience Stores,32.205872,-110.78936,Tucson,AZ,Convenience Stores
226-222@8tt-7yv-skf,2.9444389791664403,8.359603270841466,2.803360380906535,3,Two Flags,Grocery Stores,Supermarkets and Other Grocery (except Convenience) Stores,31.379396,-110.95895,Nogales,AZ,Supermarkets and Other Grocery (except Convenience) Stores
223-222@8ts-zcs-k9f,3.8918202981106265,9.578242059529382,1.791759469228055,2,ampm,Grocery Stores,Convenience Stores,33.280209,-111.8061,Chandler,AZ,Convenience Stores
224-222@8ts-78x-2tv,6.0112671744041615,8.874727765766853,2.1972245773362196,2,El Herradero Carniceria,Grocery Stores,Supermarkets and Other Grocery (except Convenience) Stores,32.134457,-111.02616,Tucson,AZ,Convenience Stores
zzw-222@5zb-xb5-snq,4.189654742026425,8.481151420068972,2.0794415416798357,1,ampm,Grocery Stores,Convenience Stores,33.495476,-112.10786,Phoenix,AZ,Convenience Stores
222-222@5zb-w6r-hnq,1.9459101490553132,9.677715549868227,3.5263605246161616,3,Bashas' Supermarkets,Grocery Stores,Supermarkets and Other Grocery (except Convenience) Stores,33.971371,-112.73093,Wickenburg,AZ,Supermarkets and Other Grocery (except Convenience) Stores
22d-222@5zb-wvc-hyv,4.174387269895637,8.281470857895167,3.1780538303479458,3,Artisans Market,Grocery Stores,Supermarkets and Other Grocery (except Convenience) Stores,33.669308,-112.02437,Phoenix,AZ,Supermarkets and Other Grocery (except Convenience) Stores
zzw-222@5zb-x5m-5cq,5.916202062607435,8.161375023197486,2.5649493574615367,1,Safeway,Grocery Stores,Supermarkets and Other Grocery (except Convenience) Stores,33.757694,-111.99158,Cave Creek,AZ,Supermarkets and Other Grocery (except Convenience) Stores
zzw-223@5zb-w5t-sdv,5.968707559985366,9.298809019963791,2.772588722239781,2,Safeway,Grocery Stores,Supermarkets and Other Grocery (except Convenience) Stores,33.961002,-112.77087,Wickenburg,AZ,Supermarkets and Other Grocery (except Convenience) Stores
zzw-222@8ts-zgk-9mk,4.1588830833596715,8.690474003558043,2.302585092994046,2,Circle K,Grocery Stores,Convenience Stores,33.406986,-111.87532,Mesa,AZ,Supermarkets and Other Grocery (except Convenience) Stores
222-222@8ts-36p-vxq,5.560681631015528,8.864322722511439,1.791759469228055,2,Circle K,Grocery Stores,Convenience Stores,32.395905,-110.99522,Oro Valley,AZ,Convenience Stores
222-223@8ts-zxh-3bk,6.09807428216624,7.968665700466235,2.772588722239781,1,Safeway,Grocery Stores,Supermarkets and Other Grocery (except Convenience) Stores,33.303234,-111.99657,Phoenix,AZ,Supermarkets and Other Grocery (except Convenience) Stores
223-222@5zb-xdw-45f,4.9344739331306915,9.478457288933123,2.0794415416798357,2,Circle K,Grocery Stores,Convenience Stores,33.479794,-112.06534,Phoenix,AZ,Convenience Stores
225-222@5zb-xdq-td9,5.267858159063328,9.859378912910065,2.1972245773362196,2,Circle K,Grocery Stores,Convenience Stores,33.44873,-112.04721,Phoenix,AZ,Convenience Stores
zzw-223@8tt-pg8-qcq,5.056245805348308,9.378732023236639,2.0794415416798357,2,Circle K,Grocery Stores,Convenience Stores,31.627739,-110.33517,Huachuca City,AZ,Convenience Stores
222-223@8tt-254-49z,7.9017475185201445,8.435766192720509,3.044522437723423,1,Fry's Food & Drug Stores,Grocery Stores,Supermarkets and Other Grocery (except Convenience) Stores,33.218449,-111.56526,San Tan Valley,AZ,Supermarkets and Other Grocery (except Convenience) Stores
22b-222@8ts-d6f-gx5,5.8971538676367405,8.600062669238532,2.302585092994046,1,Mercado Y Carniceria El Rodeo,Grocery Stores,Supermarkets and Other Grocery (except Convenience) Stores,33.449974,-112.25784,Tolleson,AZ,Supermarkets and Other Grocery (except Convenience) Stores
zzw-222@8ts-d53-p7q,4.31748811353631,10.119888422982946,3.044522437723423,3,World Class Distribution,Grocery Stores,Supermarkets and Other Grocery (except Convenience) Stores,33.449223,-112.28484,Tolleson,AZ,Supermarkets and Other Grocery (except Convenience) Stores
222-223@8ts-3p5-6kz,5.225746673713202,8.086410275323782,2.0794415416798357,1,R & D Market,Grocery Stores,Supermarkets and Other Grocery (except Convenience) Stores,32.155682,-110.95564,Tucson,AZ,Supermarkets and Other Grocery (except Convenience) Stores
225-222@8ts-3mv-qcq,5.293304824724492,8.628555659269699,1.9459101490553132,1,Circle K,Grocery Stores,Convenience Stores,32.265137,-110.97248,Tucson,AZ,Convenience Stores
222-223@8ts-w4q-ffz,5.272999558563747,7.990576881743923,1.791759469228055,1,4 Sons Food Stores,Grocery Stores,Supermarkets and Other Grocery (except Convenience) Stores,33.610764,-111.72868,Fountain Hills,AZ,Convenience Stores
22f-222@5zb-xd2-5mk,5.10594547390058,8.03947991910045,3.332204510175204,1,Grand Stop 2,Grocery Stores,Convenience Stores,33.466232,-112.13904,Phoenix,AZ,Convenience Stores
zzw-223@8ts-zj9-y9z,6.934397209928558,8.412721169819527,2.8903717578961645,1,Safeway Marketplace,Grocery Stores,Supermarkets and Other Grocery (except Convenience) Stores,33.363213,-111.85987,Mesa,AZ,Supermarkets and Other Grocery (except Convenience) Stores
225-224@5zb-xmg-975,3.4965075614664802,9.838041953461058,2.0794415416798357,2,City Market Deli,Grocery Stores,Convenience Stores,33.62114,-111.88951,Scottsdale,AZ,Convenience Stores
zzw-223@8ts-zg8-nqz,3.58351893845611,8.517193191416238,4.42484663185681,3,S&J Produce,Grocery Stores,Supermarkets and Other Grocery (except Convenience) Stores,33.423615,-111.85688,Mesa,AZ,Supermarkets and Other Grocery (except Convenience) Stores
zzw-222@8sc-xqj-87q,6.234410725718371,9.130539301772627,2.9444389791664403,1,Sprouts Farmers Market,Grocery Stores,Supermarkets and Other Grocery (except Convenience) Stores,32.698895,-114.62527,Yuma,AZ,Supermarkets and Other Grocery (except Convenience) Stores
222-222@8ts-zxp-dgk,5.181783550292085,10.091666918814242,1.9459101490553132,2,Circle K,Grocery Stores,Convenience Stores,33.319122,-111.97655,Phoenix,AZ,Convenience Stores
zzw-222@8ts-zhs-f4v,3.1354942159291497,9.208939391060555,3.044522437723423,3,Summers Fruit Barn,Grocery Stores,Supermarkets and Other Grocery (except Convenience) Stores,33.378216,-112.02218,Phoenix,AZ,Supermarkets and Other Grocery (except Convenience) Stores
zzw-222@8ts-d6j-qmk,5.4116460518550396,8.983690681332686,1.9459101490553132,2,Circle K,Grocery Stores,Convenience Stores,33.46476,-112.23886,Tolleson,AZ,Convenience Stores
223-223@8ts-zbp-3kf,3.6109179126442243,8.823353485113792,1.791759469228055,2,ampm,Grocery Stores,Convenience Stores,33.350372,-111.82346,Gilbert,AZ,Convenience Stores
224-222@5zb-xdw-whq,5.579729825986222,9.89237604778141,2.0794415416798357,2,Circle K,Grocery Stores,Convenience Stores,33.436272,-112.06596,Phoenix,AZ,Convenience Stores
zzw-222@8ts-zgr-fzz,4.997212273764115,9.93556744599954,3.7612001156935624,3,Simply Scrumptious,Grocery Stores,Supermarkets and Other Grocery (except Convenience) Stores,33.490997,-111.91909,Scottsdale,AZ,Supermarkets and Other Grocery (except Convenience) Stores
222-222@8ts-79s-rkz,6.2285110035911835,8.99118884193151,2.0794415416798357,2,Circle K,Grocery Stores,Convenience Stores,32.133366,-110.96223,Tucson,AZ,Convenience Stores
zzy-222@5z9-rhp-pd9,5.860786223465865,8.843182098022606,1.791759469228055,2,Circle K,Grocery Stores,Convenience Stores,34.581135,-112.35683,Prescott Valley,AZ,Convenience Stores
224-222@8ts-zgv-t9z,2.995732273553991,9.03455739202181,2.772588722239781,3,Perky's AZ,Grocery Stores,Supermarkets and Other Grocery (except Convenience) Stores,33.486736,-111.91028,Scottsdale,AZ,Supermarkets and Other Grocery (except Convenience) Stores
zzw-224@5zb-v7j-qzz,5.796057750765372,8.245384468120747,2.0794415416798357,1,Fry's Food & Drug Stores,Grocery Stores,Supermarkets and Other Grocery (except Convenience) Stores,33.622711,-112.42463,Surprise,AZ,Convenience Stores
225-222@8sc-r8m-b8v,3.9318256327243257,7.407924322559599,3.1354942159291497,1,Sam's Market,Grocery Stores,Supermarkets and Other Grocery (except Convenience) Stores,32.713432,-114.6453,Yuma,AZ,Supermarkets and Other Grocery (except Convenience) Stores
225-222@5zb-xbv-h3q,5.303304908059076,8.495356496807062,3.091042453358316,1,Express Food Market,Grocery Stores,Supermarkets and Other Grocery (except Convenience) Stores,33.530563,-112.16833,Glendale,AZ,Supermarkets and Other Grocery (except Convenience) Stores
227-223@5zb-xb9-5cq,4.356708826689592,9.156095357123787,2.302585092994046,2,AJ's Fine Foods,Grocery Stores,Supermarkets and Other Grocery (except Convenience) Stores,33.510052,-112.07186,Phoenix,AZ,Supermarkets and Other Grocery (except Convenience) Stores
222-22d@8ts-zhc-xyv,3.58351893845611,7.9157131993821155,2.4849066497880004,1,Safeway,Grocery Stores,Supermarkets and Other Grocery (except Convenience) Stores,33.347813,-111.98188,Phoenix,AZ,Supermarkets and Other Grocery (except Convenience) Stores
222-224@5zb-xbp-zpv,3.8066624897703196,8.912742634737025,1.791759469228055,2,ampm,Grocery Stores,Convenience Stores,33.55328,-112.11843,Phoenix,AZ,Convenience Stores
223-225@8ts-2g8-x3q,4.955827057601261,7.764720544771477,1.791759469228055,1,IGA,Grocery Stores,Supermarkets and Other Grocery (except Convenience) Stores,32.762482,-111.6815,Arizona City,AZ,Convenience Stores
zzw-224@5zb-xfm-syv,1.6094379124341003,9.587268821942159,1.9459101490553132,3,Hudson Auction,Grocery Stores,Convenience Stores,33.59325,-112.30016,Youngtown,AZ,Convenience Stores
222-223@8tt-pzq-8n5,5.733341276897746,9.32607687045878,1.791759469228055,2,Hunry's At Quickmart Store,Grocery Stores,Convenience Stores,32.044174,-110.71399,Vail,AZ,Convenience Stores
zzw-223@8ts-zg2-3nq,5.598421958998375,8.357024439263416,1.791759469228055,1,Circle K,Grocery Stores,Convenience Stores,33.48811,-111.98659,Phoenix,AZ,Convenience Stores
zzw-223@5zb-xgq-h89,5.2574953720277815,8.067462667010057,1.9459101490553132,1,Circle K,Grocery Stores,Convenience Stores,33.581631,-112.16846,Glendale,AZ,Convenience Stores
222-223@5zb-x3r-h89,2.0794415416798357,8.499436469826978,2.3513752571634776,3,Sprouts Farmers Market,Grocery Stores,Supermarkets and Other Grocery (except Convenience) Stores,33.798294,-111.96588,Cave Creek,AZ,Supermarkets and Other Grocery (except Convenience) Stores
223-224@8ts-zyd-mkz,6.630683385642372,8.023879992734878,2.3978952727983707,1,Fry's Food & Drug Stores,Grocery Stores,Supermarkets and Other Grocery (except Convenience) Stores,33.321602,-111.93014,Tempe,AZ,Supermarkets and Other Grocery (except Convenience) Stores
229-222@8ts-yf4-jjv,4.6443908991413725,7.530479995245536,1.791759469228055,1,Carniceria Mi Torito,Grocery Stores,Supermarkets and Other Grocery (except Convenience) Stores,32.973892,-111.52425,Coolidge,AZ,Convenience Stores
225-224@5zb-xjy-pvz,5.545177444479562,8.258940462988459,2.4849066497880004,1,Safeway,Grocery Stores,Supermarkets and Other Grocery (except Convenience) Stores,33.584209,-111.92438,Scottsdale,AZ,Supermarkets and Other Grocery (except Convenience) Stores
223-222@8ts-3mk-t9z,2.1972245773362196,9.777243825961877,2.970414465569701,3,ampm,Grocery Stores,Convenience Stores,32.294964,-111.02648,Flowing Wells,AZ,Supermarkets and Other Grocery (except Convenience) Stores
223-224@5zb-x54-qvf,5.971261839790462,8.867568333206442,2.772588722239781,1,Safeway,Grocery Stores,Supermarkets and Other Grocery (except Convenience) Stores,33.69997,-111.923,Scottsdale,AZ,Supermarkets and Other Grocery (except Convenience) Stores
222-222@8ts-3pw-5j9,5.869296913133774,9.086249986745132,1.791759469228055,2,Circle K,Grocery Stores,Convenience Stores,32.166374,-110.91833,Tucson,AZ,Convenience Stores
227-222@5zb-xbp-pvz,5.616771097666572,7.974188669286011,1.9459101490553132,1,Circle K,Grocery Stores,Convenience Stores,33.552814,-112.12605,Phoenix,AZ,Convenience Stores
zzw-222@5zb-wtx-975,4.394449154672439,8.264620829411216,2.302585092994046,1,Circle K,Grocery Stores,Convenience Stores,33.712166,-112.13572,Glendale,AZ,Supermarkets and Other Grocery (except Convenience) Stores
22c-222@5zb-xdb-g6k,3.091042453358316,9.089414904047302,4.0943445622221,3,Phoenix Ashes,Grocery Stores,Supermarkets and Other Grocery (except Convenience) Stores,33.505363,-112.208,Phoenix,AZ,Supermarkets and Other Grocery (except Convenience) Stores
223-222@8ts-zhz-j7q,5.529429087511423,8.27893600229198,1.791759469228055,1,Circle K,Grocery Stores,Convenience Stores,33.363682,-111.87728,Mesa,AZ,Convenience Stores
zzw-222@8tt-vcr-qvf,2.70805020110221,10.598557882657921,2.772588722239781,3,Red Mountain Foods,Grocery Stores,Supermarkets and Other Grocery (except Convenience) Stores,31.539673,-110.75597,Patagonia,AZ,Supermarkets and Other Grocery (except Convenience) Stores
zzw-222@5zb-wx4-pjv,4.90527477843843,8.941807118363164,3.7612001156935624,3,7th Street Hotspot Cafe and Market,Grocery Stores,Supermarkets and Other Grocery (except Convenience) Stores,33.634972,-112.06673,Phoenix,AZ,Supermarkets and Other Grocery (except Convenience) Stores
zzw-224@8tt-q4n-sh5,4.852030263919617,10.474608332085875,1.9459101490553132,2,Circle K,Grocery Stores,Convenience Stores,31.967758,-110.29588,Benson,AZ,Convenience Stores
223-222@8ts-3mt-kmk,5.455321115357702,8.97322466309509,3.1354942159291497,1,Circle K,Grocery Stores,Convenience Stores,32.272289,-110.97743,Tucson,AZ,Convenience Stores
223-222@5zb-wx6-yqf,5.4680601411351315,7.930206206684683,1.9459101490553132,1,Circle K,Grocery Stores,Convenience Stores,33.63995,-112.04766,Phoenix,AZ,Convenience Stores
227-222@5zb-xcp-kmk,6.261491684321042,8.638525476583762,1.9459101490553132,1,Circle K,Grocery Stores,Convenience Stores,33.553467,-112.1044,Phoenix,AZ,Convenience Stores
zzw-223@8ts-zjt-vpv,3.58351893845611,9.024613022047395,3.091042453358316,3,Superstition Ranch Market,Grocery Stores,Supermarkets and Other Grocery (except Convenience) Stores,33.415771,-111.58432,Apache Junction,AZ,Supermarkets and Other Grocery (except Convenience) Stores
223-222@8sc-xqj-9fz,4.553876891600541,9.067162602299854,2.3978952727983707,2,Porters,Grocery Stores,Convenience Stores,32.698917,-114.61961,Yuma,AZ,Convenience Stores
222-222@8ts-3m6-yd9,4.77912349311153,8.259975659768276,2.0794415416798357,1,7-Eleven,Grocery Stores,Convenience Stores,32.250961,-110.91808,Tucson,AZ,Convenience Stores
zzw-222@8tt-vtp-t35,5.389071729816501,9.965052908194282,2.70805020110221,2,Safeway,Grocery Stores,Supermarkets and Other Grocery (except Convenience) Stores,31.40115,-109.91728,Bisbee,AZ,Supermarkets and Other Grocery (except Convenience) Stores
224-222@8ts-zgz-4gk,4.948759890378168,7.8928255262511176,2.302585092994046,1,Circle K,Grocery Stores,Convenience Stores,33.458111,-111.92708,Tempe,AZ,Convenience Stores
223-223@5zb-t2h-mx5,4.499809670330265,8.469052816088302,2.833213344056216,1,Safeway,Grocery Stores,Supermarkets and Other Grocery (except Convenience) Stores,34.561497,-112.4845,Prescott,AZ,Supermarkets and Other Grocery (except Convenience) Stores
223-223@8ts-3mq-2hq,5.43372200355424,8.192016914536875,2.70805020110221,1,Bashas' Supermarkets,Grocery Stores,Supermarkets and Other Grocery (except Convenience) Stores,32.30685,-111.01033,Tucson,AZ,Supermarkets and Other Grocery (except Convenience) Stores
222-222@5zb-vng-mrk,6.054439346269371,8.099554282376364,2.772588722239781,1,Safeway,Grocery Stores,Supermarkets and Other Grocery (except Convenience) Stores,33.483902,-112.36409,Goodyear,AZ,Supermarkets and Other Grocery (except Convenience) Stores
zzw-223@8ts-3nv-d9z,4.7535901911063645,8.778941881841513,2.0794415416798357,2,Quik Mart,Grocery Stores,Convenience Stores,32.199741,-110.99727,Tucson,AZ,Convenience Stores
223-222@5zb-xbn-2x5,5.638354669333745,7.841885928984623,1.791759469228055,1,Circle K,Grocery Stores,Convenience Stores,33.56678,-112.17115,Glendale,AZ,Convenience Stores
222-222@8ts-2fj-c3q,3.091042453358316,8.153925132007862,1.791759469228055,1,Multi Mart,Grocery Stores,Convenience Stores,32.791622,-111.61767,Eloy,AZ,Convenience Stores
222-222@8ts-3nw-py9,5.58724865840025,8.361474616416817,1.791759469228055,1,Circle K,Grocery Stores,Convenience Stores,32.192715,-110.94297,Tucson,AZ,Convenience Stores
222-222@8th-ngp-68v,6.037870919922137,9.455949668006056,1.9459101490553132,2,Circle K,Grocery Stores,Convenience Stores,34.566265,-111.86589,Camp Verde,AZ,Convenience Stores
zzy-222@8tg-7y7-xt9,5.476463551931511,9.84086719055446,1.9459101490553132,2,Circle K,Grocery Stores,Convenience Stores,34.473297,-110.08752,Taylor,AZ,Convenience Stores
zzw-223@5z9-dmy-pqf,5.402677381872279,9.122492281402987,2.9444389791664403,2,Safeway,Grocery Stores,Supermarkets and Other Grocery (except Convenience) Stores,35.121899,-114.58851,Bullhead City,AZ,Supermarkets and Other Grocery (except Convenience) Stores
zzw-223@5zb-xhh-g49,5.517452896464707,8.251924713801357,1.791759469228055,1,Circle K,Grocery Stores,Convenience Stores,33.494076,-112.2907,Phoenix,AZ,Convenience Stores
223-222@5zb-xdg-c89,2.995732273553991,9.228376734462282,3.676300671907076,3,ampm,Grocery Stores,Convenience Stores,33.509033,-112.16934,Phoenix,AZ,Supermarkets and Other Grocery (except Convenience) Stores
zzw-223@8ts-369-s5z,5.556828061699537,9.094255892955381,1.791759469228055,2,Circle K,Grocery Stores,Convenience Stores,32.365898,-110.96919,Oro Valley,AZ,Convenience Stores
222-222@8ts-33g-mff,4.955827057601261,9.086249986745132,1.791759469228055,2,Circle K,Grocery Stores,Convenience Stores,32.294834,-110.82355,Tucson,AZ,Convenience Stores
222-224@5zb-25z-whq,6.285998094508865,8.535622326884605,2.995732273553991,1,Smith's Food & Drug Stores,Grocery Stores,Supermarkets and Other Grocery (except Convenience) Stores,35.224258,-114.03425,Kingman,AZ,Supermarkets and Other Grocery (except Convenience) Stores
224-222@8ts-ckc-q2k,4.61512051684126,8.975630184290507,2.6741486494265287,2,Food City Arizona,Grocery Stores,Supermarkets and Other Grocery (except Convenience) Stores,32.877331,-111.75309,Casa Grande,AZ,Supermarkets and Other Grocery (except Convenience) Stores
zzw-223@8ts-zr6-h3q,3.58351893845611,8.890272839380247,2.4849066497880004,2,Tienda comunidad latina,Grocery Stores,Supermarkets and Other Grocery (except Convenience) Stores,33.415764,-111.79559,Mesa,AZ,Supermarkets and Other Grocery (except Convenience) Stores
223-223@8ts-zqm-qzz,4.127134385045092,10.289939721462362,1.9459101490553132,2,Circle K,Grocery Stores,Convenience Stores,33.570953,-111.71256,Fountain Hills,AZ,Convenience Stores
222-223@5zb-xds-wc5,5.267858159063328,8.32579052588609,2.995732273553991,1,Food City Arizona,Grocery Stores,Supermarkets and Other Grocery (except Convenience) Stores,33.466976,-112.03696,Phoenix,AZ,Supermarkets and Other Grocery (except Convenience) Stores
222-224@8th-ngp-3wk,6.476972362889683,9.29053691397046,2.833213344056216,2,Bashas' Supermarkets,Grocery Stores,Supermarkets and Other Grocery (except Convenience) Stores,34.567146,-111.86485,Camp Verde,AZ,Supermarkets and Other Grocery (except Convenience) Stores
227-222@5zb-xds-p5f,2.3978952727983707,9.061956366209925,3.1354942159291497,3,Mi Tienda Latina,Grocery Stores,Supermarkets and Other Grocery (except Convenience) Stores,33.467506,-112.02961,Phoenix,AZ,Supermarkets and Other Grocery (except Convenience) Stores
229-222@5zb-xc2-p5f,5.1647859739235145,8.445052513638554,2.1972245773362196,1,Circle K,Grocery Stores,Convenience Stores,33.530342,-112.05666,Phoenix,AZ,Convenience Stores
zzw-222@5zb-wx5-xqz,6.297109319933935,8.39366870513074,3.091042453358316,1,Food City Arizona,Grocery Stores,Supermarkets and Other Grocery (except Convenience) Stores,33.628597,-112.01221,Phoenix,AZ,Supermarkets and Other Grocery (except Convenience) Stores
228-222@8ts-3h5-3yv,5.176149732573829,8.183397369998433,2.302585092994046,1,Carniceria El Novillo,Grocery Stores,Supermarkets and Other Grocery (except Convenience) Stores,32.192467,-110.82476,Tucson,AZ,Supermarkets and Other Grocery (except Convenience) Stores
zzy-223@8tt-g85-pvz,3.9512437185814275,10.166428573724405,3.091042453358316,3,Bashas'market,Grocery Stores,Supermarkets and Other Grocery (except Convenience) Stores,31.914511,-111.88708,Sells,AZ,Supermarkets and Other Grocery (except Convenience) Stores
229-222@5zb-xcj-qxq,6.095824562432225,8.84980082722101,2.0794415416798357,2,Circle K,Grocery Stores,Convenience Stores,33.571762,-112.06555,Phoenix,AZ,Convenience Stores
222-222@8tt-7wk-rx5,2.772588722239781,8.545391845774915,4.174387269895637,3,A F Fruit & Produce,Grocery Stores,Supermarkets and Other Grocery (except Convenience) Stores,31.386375,-110.97279,Nogales,AZ,Supermarkets and Other Grocery (except Convenience) Stores
222-225@8th-b9q-ghq,4.2626798770413155,9.077722847361343,3.713572066704308,3,Safeway,Grocery Stores,Supermarkets and Other Grocery (except Convenience) Stores,34.246845,-110.05229,Show Low,AZ,Supermarkets and Other Grocery (except Convenience) Stores
22d-222@8ts-3n7-vpv,3.5553480614894135,9.185227671161108,4.069026754237811,3,Nur Market & Restaurant,Grocery Stores,Supermarkets and Other Grocery (except Convenience) Stores,32.236462,-110.91631,Tucson,AZ,Supermarkets and Other Grocery (except Convenience) Stores
222-223@8ts-zfz-99f,4.3694478524670215,9.407796816354407,2.1972245773362196,2,4 Sons Food Stores,Grocery Stores,Supermarkets and Other Grocery (except Convenience) Stores,33.495312,-111.98756,Phoenix,AZ,Convenience Stores
222-222@8ts-d6s-h3q,5.771441123130016,9.635673464721814,1.9459101490553132,2,Circle K,Grocery Stores,Convenience Stores,33.392075,-112.30573,Tolleson,AZ,Convenience Stores
zzy-222@8tt-vy9-435,2.70805020110221,8.213652703029998,2.1972245773362196,1,Pueblo Nuevo Mini Mart,Grocery Stores,Convenience Stores,31.355274,-109.56284,Pirtleville,AZ,Convenience Stores
225-222@8ts-3m5-c5z,3.295836866004329,7.992268643270745,2.5649493574615367,1,S&K Market,Grocery Stores,Supermarkets and Other Grocery (except Convenience) Stores,32.252506,-110.98211,Tucson,AZ,Supermarkets and Other Grocery (except Convenience) Stores
zzw-222@8tt-7ws-kpv,3.970291913552122,8.3423635003805785,3.7376696182833684,3,Nick's Convenience Store,Grocery Stores,Convenience Stores,31.475157,-111.00217,Rio Rico,AZ,Convenience Stores
226-222@8ts-3mm-68v,5.220355825078324,8.634264863002075,1.791759469228055,2,Circle K,Grocery Stores,Convenience Stores,32.294765,-111.0116,Flowing Wells,AZ,Convenience Stores
zzw-222@8tt-skt-z75,3.9318256327243257,10.75055681536833,2.0794415416798357,2,Mustang Mall,Grocery Stores,Convenience Stores,31.887421,-109.69463,Pearce,AZ,Convenience Stores
223-222@8ts-zc9-nt9,4.812184355372417,8.625329850020815,1.791759469228055,2,Circle K,Grocery Stores,Convenience Stores,33.394142,-111.7361,Mesa,AZ,Convenience Stores
222-222@8ts-3nj-5mk,6.236369590203704,9.248310303227811,3.044522437723423,2,AJ's Fine Foods,Grocery Stores,Supermarkets and Other Grocery (except Convenience) Stores,32.324486,-110.9316,Tucson,AZ,Supermarkets and Other Grocery (except Convenience) Stores
zzw-223@5zb-xkm-rp9,6.208590026096629,8.448271745949816,2.833213344056216,1,Sprouts Farmers Market,Grocery Stores,Supermarkets and Other Grocery (except Convenience) Stores,33.599606,-111.97859,Phoenix,AZ,Supermarkets and Other Grocery (except Convenience) Stores
228-222@8ts-zht-t5f,5.484796933490655,8.704170559746386,2.1972245773362196,1,Circle K,Grocery Stores,Convenience Stores,33.393169,-112.04776,Phoenix,AZ,Convenience Stores
22b-222@8ts-3nw-jjv,5.209486152841421,8.784927626058323,3.044522437723423,1,Tortillas Don Juan,Grocery Stores,Supermarkets and Other Grocery (except Convenience) Stores,32.198868,-110.96578,South Tucson,AZ,Supermarkets and Other Grocery (except Convenience) Stores
222-223@8ts-zzq-tvz,5.799092654460526,9.042986242304014,2.9444389791664403,1,Bashas' Supermarkets,Grocery Stores,Supermarkets and Other Grocery (except Convenience) Stores,33.217518,-111.85974,Sun Lakes,AZ,Supermarkets and Other Grocery (except Convenience) Stores
222-224@8ts-zxh-28v,5.529429087511423,8.822616945344176,2.4849066497880004,1,Trader Joe's,Grocery Stores,Supermarkets and Other Grocery (except Convenience) Stores,33.304134,-111.99442,Phoenix,AZ,Supermarkets and Other Grocery (except Convenience) Stores
22b-223@5zb-xcr-3t9,2.772588722239781,9.201299627324033,2.833213344056216,3,ampm,Grocery Stores,Convenience Stores,33.552654,-112.05612,Phoenix,AZ,Supermarkets and Other Grocery (except Convenience) Stores
zzw-225@8ts-d2y-wx5,5.267858159063328,8.235095497258357,2.302585092994046,1,Carnicerias Rancho Grande,Grocery Stores,Supermarkets and Other Grocery (except Convenience) Stores,33.407516,-112.07269,Phoenix,AZ,Supermarkets and Other Grocery (except Convenience) Stores
222-222@8ts-3nm-649,5.384495062789089,8.553910774351401,1.9459101490553132,1,Circle K,Grocery Stores,Convenience Stores,32.26545,-110.92722,Tucson,AZ,Convenience Stores
22c-222@5z9-78c-v9f,5.241747015059643,8.65817178467581,2.302585092994046,1,Carniceria El Corral,Grocery Stores,Supermarkets and Other Grocery (except Convenience) Stores,34.490639,-114.34837,Lake Havasu City,AZ,Convenience Stores
222-222@8ts-d5x-c89,6.333279628139691,8.703008637464448,1.9459101490553132,1,Corner Store,Grocery Stores,Convenience Stores,33.460617,-112.20248,Phoenix,AZ,Convenience Stores
23h-223@8sc-xqs-d7q,4.007333185232471,8.776630098427717,3.044522437723423,3,Yuma Queen,Grocery Stores,Supermarkets and Other Grocery (except Convenience) Stores,32.669971,-114.61357,Yuma,AZ,Supermarkets and Other Grocery (except Convenience) Stores
229-222@8ts-zh6-n5z,3.8066624897703196,9.675017339716193,3.58351893845611,3,ampm,Grocery Stores,Convenience Stores,33.377708,-111.97762,Tempe,AZ,Convenience Stores
227-223@5zb-wxd-q4v,3.8918202981106265,8.637993891561942,1.9459101490553132,2,ampm,Grocery Stores,Convenience Stores,33.597771,-112.01366,Phoenix,AZ,Convenience Stores
zzw-223@8ts-34g-h3q,6.52795791762255,8.918917979908679,2.995732273553991,1,Fry's Food & Drug Stores,Grocery Stores,Supermarkets and Other Grocery (except Convenience) Stores,32.400944,-110.95773,Oro Valley,AZ,Supermarkets and Other Grocery (except Convenience) Stores
22d-222@8ts-3hd-49z,4.127134385045092,8.897135342293316,3.8066624897703196,3,Circle K,Grocery Stores,Convenience Stores,32.192444,-110.85381,Tucson,AZ,Supermarkets and Other Grocery (except Convenience) Stores
zzw-222@8ts-zxm-kmk,2.3978952727983707,10.149331489371114,4.394449154672439,3,Bashas' Distribution Warehouse,Grocery Stores,Supermarkets and Other Grocery (except Convenience) Stores,33.29921,-111.96423,Chandler,AZ,Supermarkets and Other Grocery (except Convenience) Stores
223-222@5z9-78c-73q,4.912654885736052,8.438149984075784,2.4423470353692043,1,Food City Arizona,Grocery Stores,Supermarkets and Other Grocery (except Convenience) Stores,34.506657,-114.35134,Lake Havasu City,AZ,Supermarkets and Other Grocery (except Convenience) Stores
zzw-223@5zb-xkm-q4v,5.327876168789581,9.078978053779355,1.791759469228055,2,Jacksons Food Stores,Grocery Stores,Convenience Stores,33.596024,-111.98153,Phoenix,AZ,Convenience Stores
226-222@5zb-wwy-b6k,5.659482215759621,7.980707820869669,1.9459101490553132,1,Circle K,Grocery Stores,Convenience Stores,33.638687,-112.151,Phoenix,AZ,Convenience Stores
222-222@8ts-3mq-mtv,6.270988431858299,9.452894316810216,2.0794415416798357,2,Circle K,Grocery Stores,Convenience Stores,32.260487,-110.99451,Tucson,AZ,Convenience Stores
zzw-223@5zb-wwx-zxq,6.016157159698354,8.130353547431238,2.9444389791664403,1,Safeway,Grocery Stores,Supermarkets and Other Grocery (except Convenience) Stores,33.640881,-112.13335,Phoenix,AZ,Supermarkets and Other Grocery (except Convenience) Stores
22q-222@8sc-r8p-pqf,1.9459101490553132,9.09627541568821,2.3978952727983707,3,C Produce Com,Grocery Stores,Supermarkets and Other Grocery (except Convenience) Stores,32.722858,-114.61765,Yuma,AZ,Supermarkets and Other Grocery (except Convenience) Stores
zzw-226@5zb-x3g-dvz,5.247024072160486,8.701512750872865,2.0794415416798357,2,AJ's Fine Foods,Grocery Stores,Supermarkets and Other Grocery (except Convenience) Stores,33.768578,-111.92422,Scottsdale,AZ,Convenience Stores
222-222@5zb-xdv-q2k,5.231108616854587,9.2077369861060685,1.9459101490553132,2,Circle K,Grocery Stores,Convenience Stores,33.487747,-112.04805,Phoenix,AZ,Convenience Stores
226-222@8ts-zr2-syv,5.187385805840755,8.017637159908478,1.9459101490553132,1,ampm,Grocery Stores,Convenience Stores,33.452332,-111.77017,Mesa,AZ,Convenience Stores
224-222@8ts-zd8-7t9,4.795790545596741,8.146709052203319,2.1972245773362196,1,Circle K,Grocery Stores,Convenience Stores,33.334785,-111.806,Gilbert,AZ,Convenience Stores
222-222@8sc-xr2-c89,5.356586274672012,9.089076284483143,2.1972245773362196,2,Porters,Grocery Stores,Convenience Stores,32.667667,-114.44342,Fortuna Foothills,AZ,Convenience Stores
zzw-222@5zb-wwf-hqz,5.631211781821365,7.9215356321335495,2.302585092994046,1,ampm,Grocery Stores,Convenience Stores,33.581436,-112.13483,Phoenix,AZ,Supermarkets and Other Grocery (except Convenience) Stores
222-223@8ts-d5j-9j9,6.428105272684596,8.36287583103188,1.791759469228055,1,Corner Store,Grocery Stores,Convenience Stores,33.493889,-112.34005,Litchfield Park,AZ,Convenience Stores
223-222@8ts-d5n-45f,5.602118820879701,9.543808099577097,1.791759469228055,2,Circle K,Grocery Stores,Convenience Stores,33.450249,-112.35763,Goodyear,AZ,Convenience Stores
222-225@5zb-wvc-gzf,4.330733340286331,8.452121194672523,1.791759469228055,1,Corner Store,Grocery Stores,Convenience Stores,33.669979,-112.03039,Phoenix,AZ,Convenience Stores
223-223@8ts-3mj-66k,3.784189633918261,8.41847721847708,1.9459101490553132,1,Quik Mart,Grocery Stores,Convenience Stores,32.290455,-110.99561,Flowing Wells,AZ,Convenience Stores
222-222@5z9-78c-rhq,5.293304824724492,8.47261414801827,1.9459101490553132,1,Circle K,Grocery Stores,Convenience Stores,34.494064,-114.34873,Lake Havasu City,AZ,Convenience Stores
zzw-222@8ts-79w-3t9,4.762173934797756,8.82497196556714,2.302585092994046,2,ampm,Grocery Stores,Convenience Stores,32.163937,-110.94261,Tucson,AZ,Supermarkets and Other Grocery (except Convenience) Stores
zzw-222@5zb-xds-z4v,4.844187086458591,7.988203597022576,2.0794415416798357,1,Carniceria Los Pinos,Grocery Stores,Supermarkets and Other Grocery (except Convenience) Stores,33.465393,-112.0192,Phoenix,AZ,Convenience Stores
222-223@5zb-xkg-gx5,6.872128101338986,7.9355873855892,2.9444389791664403,1,Fry's Food & Drug Stores,Grocery Stores,Supermarkets and Other Grocery (except Convenience) Stores,33.641953,-112.01115,Phoenix,AZ,Supermarkets and Other Grocery (except Convenience) Stores
223-222@8ts-d6b-qs5,3.091042453358316,8.23880116587155,2.302585092994046,1,Circle K,Grocery Stores,Convenience Stores,33.493778,-112.23729,Phoenix,AZ,Supermarkets and Other Grocery (except Convenience) Stores
223-222@8ts-zbj-yjv,4.852030263919617,8.86120833720818,2.3978952727983707,2,Natural Grocers,Grocery Stores,Supermarkets and Other Grocery (except Convenience) Stores,33.378498,-111.78529,Gilbert,AZ,Supermarkets and Other Grocery (except Convenience) Stores
227-222@5z9-phm-wrk,5.030437921392435,8.447199819595703,2.772588722239781,1,Natural Grocers,Grocery Stores,Supermarkets and Other Grocery (except Convenience) Stores,35.195438,-111.65645,Flagstaff,AZ,Supermarkets and Other Grocery (except Convenience) Stores
228-222@8ts-zj4-8sq,5.5134287461649825,9.606159103032542,3.091042453358316,2,Baiz Fresh Foods,Grocery Stores,Supermarkets and Other Grocery (except Convenience) Stores,33.379745,-111.87534,Mesa,AZ,Supermarkets and Other Grocery (except Convenience) Stores
224-223@8ts-zgg-mx5,6.028278520230698,7.725771441587952,2.70805020110221,1,Food City Arizona,Grocery Stores,Supermarkets and Other Grocery (except Convenience) Stores,33.399578,-111.85858,Mesa,AZ,Supermarkets and Other Grocery (except Convenience) Stores
222-222@8ts-d2z-v75,4.969813299576001,8.67334187390617,1.9459101490553132,2,Circle K,Grocery Stores,Convenience Stores,33.37801,-112.08227,Phoenix,AZ,Convenience Stores
zzw-226@8ts-zfz-tvz,5.82600010738045,8.075271546297458,3.044522437723423,1,Fry's Food & Drug Stores,Grocery Stores,Supermarkets and Other Grocery (except Convenience) Stores,33.479172,-111.98408,Phoenix,AZ,Supermarkets and Other Grocery (except Convenience) Stores
223-222@8ts-3pr-q4v,4.48863636973214,8.116715624819111,1.9459101490553132,1,Circle K,Grocery Stores,Convenience Stores,32.199257,-110.87444,Tucson,AZ,Convenience Stores
222-223@5zb-vpy-975,6.173786103901937,8.736649954872451,2.9444389791664403,1,Safeway,Grocery Stores,Supermarkets and Other Grocery (except Convenience) Stores,33.451538,-112.39452,Goodyear,AZ,Supermarkets and Other Grocery (except Convenience) Stores
223-223@8ts-78w-zpv,3.044522437723423,8.801017833540714,2.0794415416798357,2,ampm,Grocery Stores,Convenience Stores,32.133118,-111.02813,Tucson,AZ,Convenience Stores
226-222@5zb-wx6-4jv,2.833213344056216,9.605620455025981,2.803360380906535,3,Stanley's Homemade Sausage Company,Grocery Stores,Supermarkets and Other Grocery (except Convenience) Stores,33.639935,-112.01899,Phoenix,AZ,Supermarkets and Other Grocery (except Convenience) Stores
223-222@5z9-rhq-9cq,5.308267697401205,8.929435283803425,2.995732273553991,1,Sprouts Farmers Market,Grocery Stores,Supermarkets and Other Grocery (except Convenience) Stores,34.574383,-112.36401,Prescott Valley,AZ,Supermarkets and Other Grocery (except Convenience) Stores
zzw-222@5zb-xbg-zfz,3.6375861597263857,9.20623194393164,2.302585092994046,2,Sprouts Farmers Market,Grocery Stores,Supermarkets and Other Grocery (except Convenience) Stores,33.487003,-112.08443,Phoenix,AZ,Supermarkets and Other Grocery (except Convenience) Stores
223-224@8ts-zgs-4vz,5.568344503761097,9.467228129254554,1.9459101490553132,2,Corner Store,Grocery Stores,Convenience Stores,33.479919,-111.92577,Scottsdale,AZ,Convenience Stores
zzw-223@8ts-d6f-j35,5.605802066295998,8.488999457045455,2.1972245773362196,1,Circle K,Grocery Stores,Convenience Stores,33.450954,-112.25575,Tolleson,AZ,Convenience Stores
zzw-222@8ts-d6f-7yv,4.1588830833596715,10.169154050930228,4.356708826689592,3,Circle K Food,Grocery Stores,Convenience Stores,33.456451,-112.23927,Tolleson,AZ,Convenience Stores
226-222@8ts-zgc-qzz,5.488937726156687,8.261009786023827,2.4849066497880004,1,Bita Market Convenience Store,Grocery Stores,Convenience Stores,33.446243,-111.84023,Mesa,AZ,Convenience Stores
zzw-222@5zb-ww6-wx5,5.19295685089021,8.052933036797567,1.9459101490553132,1,Circle K,Grocery Stores,Convenience Stores,33.611843,-112.13428,Phoenix,AZ,Convenience Stores
222-222@8ts-zn4-3yv,6.040254711277414,8.098642843759418,1.8718021769015913,1,Circle K,Grocery Stores,Convenience Stores,33.407295,-111.63198,Mesa,AZ,Convenience Stores
222-222@8ts-zc9-v9f,5.3981627015177525,8.91085558740525,2.0794415416798357,2,Circle K,Grocery Stores,Convenience Stores,33.379692,-111.73901,Mesa,AZ,Convenience Stores
zzy-222@5zb-wwc-9fz,5.537334267018537,8.388677769180811,2.302585092994046,1,Cafe West,Grocery Stores,Supermarkets and Other Grocery (except Convenience) Stores,33.640041,-112.1338,Phoenix,AZ,Supermarkets and Other Grocery (except Convenience) Stores
225-222@5zb-xgn-zcq,4.276666119016055,8.59840444684106,2.8903717578961645,1,Hacienda Navarro Carnisseria,Grocery Stores,Supermarkets and Other Grocery (except Convenience) Stores,33.583073,-112.22112,Peoria,AZ,Supermarkets and Other Grocery (except Convenience) Stores
22z-222@8ts-zgr-brk,3.8501476017100584,10.085475720428844,3.597312260588446,3,Provisions local market,Grocery Stores,Supermarkets and Other Grocery (except Convenience) Stores,33.490833,-111.93227,Scottsdale,AZ,Supermarkets and Other Grocery (except Convenience) Stores
zzw-222@5zb-xkv-4qf,4.727387818712341,8.215817791832453,3.332204510175204,1,Grocery Station,Grocery Stores,Convenience Stores,33.586475,-111.84719,Scottsdale,AZ,Convenience Stores
227-222@5zb-xmg-s5z,2.0794415416798357,10.46278900535916,4.375757021660286,3,Boars Head Provisioning,Grocery Stores,Supermarkets and Other Grocery (except Convenience) Stores,33.612789,-111.91101,Scottsdale,AZ,Supermarkets and Other Grocery (except Convenience) Stores
225-222@8ts-wg4-cdv,5.056245805348308,8.471568013389962,1.9459101490553132,1,Circle K,Grocery Stores,Convenience Stores,33.394974,-110.77477,Globe,AZ,Convenience Stores
224-222@5zb-xdv-h5z,5.993961427306569,9.103868127465667,2.0794415416798357,2,Phoenix Oil,Grocery Stores,Convenience Stores,33.480598,-112.04814,Phoenix,AZ,Convenience Stores
222-225@5zb-wtw-t9z,4.430816798843313,8.207674424355282,2.4849066497880004,1,Safeway,Grocery Stores,Supermarkets and Other Grocery (except Convenience) Stores,33.714527,-112.14096,Glendale,AZ,Convenience Stores
223-222@5zb-wv5-9zz,4.127134385045092,9.735660441892627,1.791759469228055,2,4 Sons Food Stores,Grocery Stores,Supermarkets and Other Grocery (except Convenience) Stores,33.698784,-112.13972,Glendale,AZ,Convenience Stores
222-224@8ts-3pb-d5f,4.418840607796598,8.367764677924308,3.0204248861443626,1,Albertsons,Grocery Stores,Supermarkets and Other Grocery (except Convenience) Stores,32.238785,-111.0039,Tucson,AZ,Supermarkets and Other Grocery (except Convenience) Stores
zzw-222@8ts-zft-wx5,5.575949103146316,7.915348169263078,2.4849066497880004,1,Food City Arizona,Grocery Stores,Supermarkets and Other Grocery (except Convenience) Stores,33.466442,-111.98605,Phoenix,AZ,Supermarkets and Other Grocery (except Convenience) Stores
223-222@8ts-d7m-t35,2.302585092994046,9.231906149890744,3.970291913552122,3,Date Palms Oasis,Grocery Stores,Supermarkets and Other Grocery (except Convenience) Stores,33.377811,-112.19547,Laveen,AZ,Supermarkets and Other Grocery (except Convenience) Stores
226-222@8ts-3n7-kzz,5.209486152841421,8.324821298768782,2.302585092994046,1,Circle K,Grocery Stores,Convenience Stores,32.243851,-110.90092,Tucson,AZ,Convenience Stores
zzy-222@8ts-x27-gzf,5.676753802268282,8.685077700412423,2.772588722239781,1,Fry's Food & Drug Stores,Grocery Stores,Supermarkets and Other Grocery (except Convenience) Stores,33.420341,-110.81676,Globe,AZ,Supermarkets and Other Grocery (except Convenience) Stores
225-222@8ts-3h6-j5f,4.736198448394496,8.261784679514752,4.07753744390572,3,Value Veggies,Grocery Stores,Supermarkets and Other Grocery (except Convenience) Stores,32.207302,-110.87035,Tucson,AZ,Supermarkets and Other Grocery (except Convenience) Stores
222-222@8ts-3mc-v75,6.220590170099739,9.679280936368654,1.9459101490553132,2,Circle K,Grocery Stores,Convenience Stores,32.22139,-110.97932,Tucson,AZ,Convenience Stores
zzw-222@8ts-zt3-hnq,7.01211529430638,8.360539381370861,2.9444389791664403,1,Fry's Food & Drug Stores,Grocery Stores,Supermarkets and Other Grocery (except Convenience) Stores,33.217388,-111.8257,Chandler,AZ,Supermarkets and Other Grocery (except Convenience) Stores
222-226@8ts-zb7-h89,3.4657359027997265,8.94754601503218,1.791759469228055,2,Fast Market,Grocery Stores,Convenience Stores,33.307415,-111.75475,Gilbert,AZ,Convenience Stores
zzw-222@8ts-d62-jsq,4.07753744390572,7.821242083523558,1.9459101490553132,1,Carniceria Mana,Grocery Stores,Supermarkets and Other Grocery (except Convenience) Stores,33.423477,-112.23681,Phoenix,AZ,Supermarkets and Other Grocery (except Convenience) Stores
226-222@8ts-3pt-rzf,3.4339872044851463,8.916774356365426,3.6375861597263857,3,United Food & Commercial Workers Un Local 99 Tucsn,Grocery Stores,Supermarkets and Other Grocery (except Convenience) Stores,32.210072,-110.90926,Tucson,AZ,Supermarkets and Other Grocery (except Convenience) Stores
222-223@8th-8x8-kmk,5.981414211254481,10.451319901931214,2.6390573296152584,2,Safeway,Grocery Stores,Supermarkets and Other Grocery (except Convenience) Stores,34.130489,-109.28963,Springerville,AZ,Supermarkets and Other Grocery (except Convenience) Stores
222-223@8tr-zdr-4jv,5.58724865840025,8.448057452581375,1.9459101490553132,1,Super Stop 401,Grocery Stores,Convenience Stores,32.428944,-111.30487,Avra Valley,AZ,Convenience Stores
zzw-223@5zb-xgv-47q,6.068425588244111,8.128290171607052,2.772588722239781,1,Albertsons,Grocery Stores,Supermarkets and Other Grocery (except Convenience) Stores,33.639561,-112.25204,Peoria,AZ,Supermarkets and Other Grocery (except Convenience) Stores
222-222@5zb-wv5-xbk,4.143134726391533,7.7651449029361315,1.9459101490553132,1,Circle K,Grocery Stores,Convenience Stores,33.683201,-112.13403,Phoenix,AZ,Convenience Stores
zzw-222@8ts-zhb-3bk,4.060443010546419,8.975756630519417,2.995732273553991,3,Circle K,Grocery Stores,Convenience Stores,33.377766,-111.95491,Tempe,AZ,Supermarkets and Other Grocery (except Convenience) Stores
zzy-222@8ts-3py-r49,6.052089168924417,9.371778717853713,3.1354942159291497,2,Davis Monthan Commissary,Grocery Stores,Supermarkets and Other Grocery (except Convenience) Stores,32.18655,-110.87667,Tucson,AZ,Supermarkets and Other Grocery (except Convenience) Stores
224-222@8ts-3mq-qcq,5.241747015059643,9.097619501912064,1.791759469228055,2,Circle K,Grocery Stores,Convenience Stores,32.271866,-111.00314,Tucson,AZ,Convenience Stores
zzw-222@8tg-hsw-p5f,2.1972245773362196,9.702777967428895,4.241326752570746,3,Stern Produce Co,Grocery Stores,Supermarkets and Other Grocery (except Convenience) Stores,35.253178,-111.55962,Flagstaff,AZ,Supermarkets and Other Grocery (except Convenience) Stores
224-223@8ts-zgq-mzf,4.276666119016055,8.533263371593732,2.0794415416798357,1,7-Eleven,Grocery Stores,Convenience Stores,33.466351,-111.90002,Scottsdale,AZ,Convenience Stores
229-222@8ts-3pr-c3q,4.969813299576001,9.068085324395312,2.5649493574615367,2,Carniceria los Vaqueros,Grocery Stores,Supermarkets and Other Grocery (except Convenience) Stores,32.198364,-110.87454,Tucson,AZ,Supermarkets and Other Grocery (except Convenience) Stores
222-222@5zb-xkm-6tv,5.288267030694535,8.797699580118923,1.791759469228055,2,Circle K,Grocery Stores,Convenience Stores,33.611916,-111.97746,Phoenix,AZ,Convenience Stores
zzw-222@8ts-zh5-mp9,5.278114659230517,9.193295937366925,3.4011973816621555,3,Honeyville Farms,Grocery Stores,Supermarkets and Other Grocery (except Convenience) Stores,33.351616,-111.94971,Tempe,AZ,Supermarkets and Other Grocery (except Convenience) Stores
222-222@5zb-wtp-4vz,5.683579767338681,9.725854985228304,1.791759469228055,2,Circle K,Grocery Stores,Convenience Stores,33.684109,-112.10027,Phoenix,AZ,Convenience Stores
224-222@8ts-3p3-d7q,5.8377304471659395,8.762176509334903,2.5649493574615367,1,Food City Arizona,Grocery Stores,Supermarkets and Other Grocery (except Convenience) Stores,32.179436,-111.00194,Tucson,AZ,Supermarkets and Other Grocery (except Convenience) Stores
zzw-222@8ts-zs4-f75,5.902633333401366,8.301025253838453,1.791759469228055,1,Circle K,Grocery Stores,Convenience Stores,33.438049,-111.6847,Mesa,AZ,Convenience Stores
223-222@8ts-zg9-mp9,5.521460917862246,8.024862150286411,1.9459101490553132,1,Circle K,Grocery Stores,Convenience Stores,33.421696,-111.87398,Mesa,AZ,Convenience Stores
228-222@8ts-w4n-jjv,4.02535169073515,8.566173813637858,2.1972245773362196,1,Fountain Hills Express Convenience Store & Deli,Grocery Stores,Convenience Stores,33.5947,-111.71209,Fountain Hills,AZ,Convenience Stores
223-222@8ts-793-7dv,5.375278407684165,8.705662478796427,1.791759469228055,2,Circle K,Grocery Stores,Convenience Stores,32.133244,-110.99839,Tucson,AZ,Convenience Stores
zzw-222@5zb-vmn-ysq,7.502738210754851,8.369620826949102,2.995732273553991,1,Fry's Food & Drug Stores,Grocery Stores,Supermarkets and Other Grocery (except Convenience) Stores,33.495316,-112.48157,Buckeye,AZ,Supermarkets and Other Grocery (except Convenience) Stores
zzw-223@5z9-sqt-t7q,4.624972813284271,7.9017475185201445,3.2386784521643803,1,Hallum Oil,Grocery Stores,Convenience Stores,34.739094,-112.02014,Cottonwood,AZ,Convenience Stores
222-222@8ts-zh8-gc5,4.127134385045092,8.708804795117285,2.0794415416798357,2,Circle K,Grocery Stores,Convenience Stores,33.363132,-111.94654,Tempe,AZ,Convenience Stores
226-222@8tg-7wr-qzz,4.919980925828125,9.882876598632004,1.9459101490553132,2,Circle K,Grocery Stores,Convenience Stores,34.507462,-110.07943,Snowflake,AZ,Convenience Stores
zzw-222@8ts-3px-6c5,3.332204510175204,9.456184308811169,2.302585092994046,2,Sunland Foods,Grocery Stores,Supermarkets and Other Grocery (except Convenience) Stores,32.179325,-110.92179,Tucson,AZ,Supermarkets and Other Grocery (except Convenience) Stores
226-223@5zb-wx4-cyv,4.07753744390572,8.734881892047483,2.70805020110221,3,Paradise Cove,Grocery Stores,Supermarkets and Other Grocery (except Convenience) Stores,33.634571,-112.06582,Phoenix,AZ,Supermarkets and Other Grocery (except Convenience) Stores
zzw-222@8ts-3p4-d35,5.135798437050262,8.431635303054591,1.9459101490553132,1,Circle K,Grocery Stores,Convenience Stores,32.163643,-110.95558,Tucson,AZ,Convenience Stores
224-223@8ts-zxn-ch5,4.762173934797756,8.408716715080153,1.791759469228055,1,Circle K,Grocery Stores,Convenience Stores,33.320835,-111.98862,Phoenix,AZ,Convenience Stores
zzw-222@8ts-zdn-9pv,5.966146739123692,9.312445594913337,2.772588722239781,2,ALDI,Grocery Stores,Supermarkets and Other Grocery (except Convenience) Stores,33.295204,-111.75111,Gilbert,AZ,Supermarkets and Other Grocery (except Convenience) Stores
22g-222@8ts-zfd-yvz,5.043425116919247,9.745077815788486,2.1972245773362196,2,Circle K,Grocery Stores,Convenience Stores,33.42157,-111.94208,Tempe,AZ,Convenience Stores
229-222@8ts-zj7-dy9,2.8903717578961645,8.643825842349603,3.367295829986474,3,Mobenergy Llc,Grocery Stores,Convenience Stores,33.337372,-111.87965,Chandler,AZ,Convenience Stores
222-223@8ts-ck5-kxq,5.598421958998375,8.294049640102028,3.2188758248682006,1,Safeway,Grocery Stores,Supermarkets and Other Grocery (except Convenience) Stores,32.895271,-111.74156,Casa Grande,AZ,Supermarkets and Other Grocery (except Convenience) Stores
22b-222@5zb-xd2-5mk,3.9318256327243257,8.693664334532016,2.0794415416798357,2,Sabor Latino,Grocery Stores,Supermarkets and Other Grocery (except Convenience) Stores,33.466274,-112.13822,Phoenix,AZ,Supermarkets and Other Grocery (except Convenience) Stores
22c-222@5zb-xkj-grk,5.648974238161206,8.718827059242566,2.0794415416798357,1,Circle K,Grocery Stores,Convenience Stores,33.654652,-111.9781,Phoenix,AZ,Convenience Stores
222-226@8ts-79t-5pv,3.58351893845611,8.163940954755008,1.6094379124341003,1,Fast Market,Grocery Stores,Convenience Stores,32.134815,-110.944,Tucson,AZ,Convenience Stores
zzy-222@5zb-wtt-zpv,4.634728988229636,7.950149887652018,2.803360380906535,1,Animals and Humans in Disaster Empty Bowl Pet Food Pantry,Grocery Stores,Supermarkets and Other Grocery (except Convenience) Stores,33.641693,-112.06657,Phoenix,AZ,Supermarkets and Other Grocery (except Convenience) Stores
zzw-224@8tt-7yy-4n5,1.791759469228055,9.3350328159335,2.4423470353692043,3,Ocotillo Produce,Grocery Stores,Supermarkets and Other Grocery (except Convenience) Stores,31.385588,-110.94635,Nogales,AZ,Supermarkets and Other Grocery (except Convenience) Stores
223-222@5zb-xcp-xdv,5.529429087511423,8.427487278331744,3.044522437723423,1,Sprouts Farmers Market,Grocery Stores,Supermarkets and Other Grocery (except Convenience) Stores,33.554665,-112.10115,Phoenix,AZ,Supermarkets and Other Grocery (except Convenience) Stores
225-224@5zb-xgf-y5f,5.60947179518496,8.285261134068948,2.9444389791664403,1,Bashas' Supermarkets,Grocery Stores,Supermarkets and Other Grocery (except Convenience) Stores,33.611393,-112.22197,Peoria,AZ,Supermarkets and Other Grocery (except Convenience) Stores
222-222@8tt-7yy-4n5,2.6390573296152584,9.123801610558944,2.1972245773362196,2,Wilson Batiz,Grocery Stores,Supermarkets and Other Grocery (except Convenience) Stores,31.385559,-110.94637,Nogales,AZ,Supermarkets and Other Grocery (except Convenience) Stores
zzw-223@8ts-zkx-w49,4.6443908991413725,8.047829357457841,2.9444389791664403,1,Fry's Food & Drug Stores,Grocery Stores,Supermarkets and Other Grocery (except Convenience) Stores,33.414135,-111.54374,Apache Junction,AZ,Supermarkets and Other Grocery (except Convenience) Stores
zzy-222@5z9-7pt-vj9,4.6913478822291435,8.804325112562537,2.833213344056216,1,London Bridge Shore Store,Grocery Stores,Convenience Stores,34.46397,-114.34217,Lake Havasu City,AZ,Supermarkets and Other Grocery (except Convenience) Stores
222-222@5zb-xg6-nt9,6.2766434893416445,8.577347114235984,2.772588722239781,1,Food City Arizona,Grocery Stores,Supermarkets and Other Grocery (except Convenience) Stores,33.61853,-112.32594,El Mirage,AZ,Supermarkets and Other Grocery (except Convenience) Stores
222-222@5z9-hz5-rzf,4.727387818712341,9.071882578828616,2.302585092994046,2,Best Buy Market,Grocery Stores,Supermarkets and Other Grocery (except Convenience) Stores,34.898518,-114.59735,Mohave Valley,AZ,Supermarkets and Other Grocery (except Convenience) Stores
zzy-224@5zb-xcj-ty9,4.02535169073515,8.131824785007195,2.1972245773362196,1,Supercarneceria La Hereford 2,Grocery Stores,Supermarkets and Other Grocery (except Convenience) Stores,33.56699,-112.06441,Phoenix,AZ,Convenience Stores
zzw-222@5zb-wx6-3h5,5.739792912179234,8.537387898701757,2.1972245773362196,1,Circle K,Grocery Stores,Convenience Stores,33.64016,-112.01744,Phoenix,AZ,Convenience Stores
222-223@8sc-xnk-3wk,6.812345094177479,9.323133199451306,1.9459101490553132,2,Shay Oil Co Self Serve 32,Grocery Stores,Convenience Stores,32.670643,-114.52249,Yuma,AZ,Convenience Stores
zzw-222@5zb-xn6-rhq,6.48768401848461,8.903407519932264,2.6390573296152584,1,Trader Joe's,Grocery Stores,Supermarkets and Other Grocery (except Convenience) Stores,33.583313,-111.97901,Phoenix,AZ,Supermarkets and Other Grocery (except Convenience) Stores
22b-222@8th-b9p-ghq,3.332204510175204,9.582455500402792,2.4423470353692043,2,Sunshine Herbs,Grocery Stores,Supermarkets and Other Grocery (except Convenience) Stores,34.250755,-110.03112,Show Low,AZ,Supermarkets and Other Grocery (except Convenience) Stores
222-222@8td-8yn-2kz,4.04305126783455,10.598757478477053,1.9459101490553132,2,Three Way Store,Grocery Stores,Supermarkets and Other Grocery (except Convenience) Stores,32.948078,-109.22948,Duncan,AZ,Convenience Stores
222-222@8tr-zb8-tn5,6.063785208687608,8.446126742982377,1.791759469228055,1,Circle K,Grocery Stores,Convenience Stores,32.35955,-111.04614,Tucson,AZ,Convenience Stores
223-222@8ts-zrw-xwk,5.645446897643238,7.892078421248119,2.70805020110221,1,Albertsons,Grocery Stores,Supermarkets and Other Grocery (except Convenience) Stores,33.465061,-111.68182,Mesa,AZ,Supermarkets and Other Grocery (except Convenience) Stores
222-222@8ts-3jx-mc5,5.225746673713202,9.271153211372695,1.791759469228055,2,Circle K,Grocery Stores,Convenience Stores,32.140045,-110.83985,Tucson,AZ,Convenience Stores
224-224@8ts-ydx-9vf,4.890349128221754,8.068089626278244,1.9459101490553132,1,Super Stop 753,Grocery Stores,Convenience Stores,32.984608,-111.52436,Coolidge,AZ,Convenience Stores
22c-222@8ts-3nz-dn5,4.454347296253507,7.97349996402463,1.9459101490553132,1,Super Carneceria El Herradero,Grocery Stores,Supermarkets and Other Grocery (except Convenience) Stores,32.152908,-110.97809,Tucson,AZ,Convenience Stores
222-222@8ts-z9z-fj9,4.962844630259907,7.65728279297819,2.995732273553991,1,Albertsons,Grocery Stores,Supermarkets and Other Grocery (except Convenience) Stores,33.333706,-111.77189,Gilbert,AZ,Supermarkets and Other Grocery (except Convenience) Stores
